,업소아이디,업소명,분류코드,분류코드명,업소 주소,업소 전화번호,찾아오시는 길,업소정보,자랑거리,추천수,기준년월,업소 사진,위도,경도,행정구,행정동,검색명,식당아이디
0,1739,목우촌부추삼겹살,1,한식,서울특별시 관악구 남현1길 68-10 (남현동),588-7399        ,전철 2호선 4호선 사당역에서 5번출구로 나오시면 (구)관악등기소쪽 먹자골목으로 50m거리에 위치,영업시간 : 오전 10시 ~ 오후 11시 30분 좌석수 : 44석 휴무일 : 연중무휴 배달 : 불가 예약 : 가능 카드 : 가능 주차 : 가능         ,▷사당역 먹자골목에 위치 ▷김치찌개된장찌개 2010년부터 가격 동결 ▷친절업소,257,21-2,http://tearstop.seoul.go.kr/mulga/photo/20150107174451.JPG,37.47533958,126.9810899,관악구,남현동,관악구 남현동 목우촌부추삼겹살,21025096
1,4325,청진동해장국,1,한식,서울특별시 관악구 관악로 105 (봉천동) 동산빌딩1층,875-9882        ,지하철 2호선 서울대입구역 3번 출구로 나와서 서울대학교 쪽으로 직진 도보10분 관악경찰서 앞에 위치함.,영업시간 : 24시간 좌석수 : 80석 휴무일 : 연중무휴  배달 : 불가 예약 : 가능 카드 : 가능 주차 : 가능           ,관악구 평균가격(5000원) 보다 10% 저렴 김치 깍두기 등 직접 만들어 신선함.,252,21-2,http://tearstop.seoul.go.kr/mulga/photo/20220718174745.jpg,37.47462961,126.9525993,관악구,봉천동,관악구 봉천동 청진동해장국,-
2,7851,오백냥분식,1,한식,서울특별시 송파구 가락로 112 (석촌동),414-2261,전철노선: 8호선 송파역 4번출구 중동빌딩 버스노서 : 3417.3418.3422.1007-1. 5600.8202.2412.100 ,영업시간:08:00~21:00 휴무일:연중무휴 좌  석:20석 주  차:가능, 배  달:불가 예  약:불가 카  드:가능  ,236,21-2,http://tearstop.seoul.go.kr/mulga/photo/20120703113153.JPG,37.501272,127.1085095,송파구,석촌동,송파구 석촌동 오백냥분식,13153220
3,6764,토방 닭 한마리,1,한식,서울특별시 관악구 신림로22길 5 (신림동),874-6895        ,신성부동산 건물 바로 뒷건물,영업시간 : 오전 10시 ~ 오후 10시 좌석수 : 50석 예약 : 가능 카드 : 가능 배달 : 불가능 주차 : 가능 휴무일 : 첫째 셋째 화요일     ,▷관악구 평균가격보다 10% 저렴 ▷반찬을 여러가지 하지 않고 김치와 깍두기 두가지만 맛있게 준비하여 재료비 절감 ▷15년 전통의 맛집,214,21-2,http://tearstop.seoul.go.kr/mulga/photo/20220718182757.jpg,37.47164663,126.9353063,관악구,신림동,관악구 신림동 토방 닭 한마리,20829543
4,3986,왕세숫대야냉면(행복을파는집),1,한식,서울특별시 강서구 공항대로 423(등촌동),02-2668-3608,화진코스메틱에서 강서구청4거리쪽으로 조금만 올라오세요~,영업시간 : 24시간 좌석수 : 30개 휴무일 : 미정 배달 : 불가 카드 : 가능 주차 : 불가 홈페이지 주소 : 없음 전자우편주소 : 없음 기타 : 없음 ,많이 판매가 되므로 저렴한 가격유지 그날그날 신선한 재료사용하여 조리합니다.,163,21-2,http://tearstop.seoul.go.kr/mulga/photo/00003986.JPG,37.55556748,126.8543717,강서구,등촌동,강서구 등촌동 왕세숫대야냉면(행복을파는집),36004335
5,8633,돌마리유황오리,1,한식,서울특별시 송파구 가락로 66 (석촌동),423-6231,전철노선 : 8호선 송파역 4번출구에서 강남한의원 방면 도보 7분 버스노선 : 2142321533143217320360301100116 석촌역정류장 하차 도보 5분,영업시간 :10:00~23:00 예약 :가능 카드 :가능 좌석 :96석 배달 : 불가 주차 : 가능    ,친절 서비스,155,21-2,http://tearstop.seoul.go.kr/mulga/photo/20130619110215.JPG,37.49976018,127.1036182,송파구,석촌동,송파구 석촌동 돌마리유황오리,19997949
6,8171,벧엘 칼국수,1,한식,서울특별시 송파구 마천로41길 22 (마천동),408-5151,버스노선 : 3314 3318 5 3417 마천1동 주민센터 하차 전철노선 : 5호선 마천역 1번출구 5분거리 ,영업시간 : 오전 10시 ~ 오후 9시 좌석수 : 36석 휴무일 : 일요일 배달:불가 예약:가능 카드:가능 주차:불가   ,쾌적한 환경이며 안방같은 편안한 분위기. 깔끔하고 신선한 식재료 사용. 친절 서비스,106,21-2,http://tearstop.seoul.go.kr/mulga/photo/20120703143647.JPG,37.49689463,127.1499473,송파구,마천동,송파구 마천동 벧엘 칼국수,36004538
7,3906,보라매25시해장국,1,한식,서울특별시 양천구 신월로17길 21 (신월동 우창아파트),2604-6952       ,신월4동 복개도로변 걷고싶은거리 입구,영업시간 :24시간 좌 석 수 :16석 휴 무 일 :무 배    달 : 예    약 : 카    드 :가능 주    차 :가능 홈페이지 주소 : 전자우편주소 : ,저렴한 가격과 정성어린 맛 집에서 드시는 음식처럼 청결하고 맛있는음식으로 드리려 노력합니다. 타업소보다 20% 저렴한가격으로 모십니다.,101,21-2,http://tearstop.seoul.go.kr/mulga/photo/00003906.JPG,37.52069932,126.8417514,양천구,신월동,양천구 신월동 보라매25시해장국,1985770038
8,8265,해피분식,1,한식,서울특별시 구로구 중앙로1길 18-19 (고척동 우성현대아파트),02-2688-1242,고척중학교 정문 앞 현대우성아파트 상가에 위치합니다.,영업시간 : 8:00~21:00 좌석수 : 22석(야외 4석) 휴무일 : 매주 일요일 배달 : 가능 예약 : 가능 카드 : 가능 주차 : 가능 홈페이지 주소 : X 전자우편주소 : pyjong57@hanmail.net 기타 : 분식도 함께함(여름엔 직접 갈아 만든 국산 콩국수 판매)   ,#NAME?,75,21-2,http://tearstop.seoul.go.kr/mulga/photo/20120706153533.JPG,37.49857739,126.8631491,구로구,고척동,구로구 고척동 해피분식,20880249
9,5959,금강숯불생고기,1,한식,서울특별시 광진구 용마산로7길 9 (중곡동),3437-9599       ,구 중곡2동사무소 뒤,영업시간 : 11:00~23:00 좌석수 : 40 휴무일 : 무 배달 : 예약 : 카드 : 주차 : 홈페이지 주소 : 전자우편주소 :    ,타 업소에 비해 가격이 저렴함,65,21-2,http://tearstop.seoul.go.kr/mulga/photo/금강숯불생고기.JPG,37.55898562,127.0870897,광진구,중곡동,광진구 중곡동 금강숯불생고기,18800486
10,7786,한우마당,1,한식,서울특별시 중구 남대문로5길 7 (북창동),02-3789-7792,2호선 시청역 7번출구에서   한국은행 옆 일방통행길 (횡단보도건너 좌측으로 올라가 우측까페베네끼고 우회전),(2022년 5월 기준) ○ 영업시간 : 10:00~22:00 (휴무일: 일요일) ○ 좌석수 : 120석  ○ 배달 : 불가 ○ 주차 : 불가 ○ 기타:  예약 가능 카드 가능  ,전용 숙성고에서 20~30일 동안 저온 숙성된 고급 육질의 쇠고기를 맛볼 수 있어요.  유통 마진을 줄여 저렴한 가격에 1등급 이상의 한우를 제공합니다.  숯 대신 두꺼운 돌 불판을 사용하여 고기 본연의 육즙과 향을 고스란히 느낄 수 있어요.,64,21-2,http://tearstop.seoul.go.kr/mulga/photo/20220512100541.jpg,37.56167432,126.9788515,중구,북창동,중구 북창동 한우마당,13132772
11,6778,흥부농장,1,한식,서울특별시 광진구 뚝섬로59길 81-2 (자양동),3437-3611       ,자양사거리에서 자양골목시장 방향 100m지점,영업시간 : 11:00~익일02:00 좌석수 : 40석 휴무일 : 명절 배달 : 예약 : 카드 : 주차 : 홈페이지 주소 : 전자우편주소 :  ,가격이 저렴하고 청결함,64,21-2,http://tearstop.seoul.go.kr/mulga/photo/SDC10304.JPG,37.53552255,127.0827993,광진구,자양동,광진구 자양동 흥부농장,17990777
12,6384,자매식당,1,한식,서울특별시 광진구 구의로 16 (구의동),3437-8760       ,구의역 근처 서울광진 우체국 맞은편,영업시간 : 09:00 ~ 21:00 좌석수 : 30 휴무일 : 매주일요일 배달 : 예약 : 카드 : 주차 : 홈페이지 주소 : 전자우편주소 :  ,저렴한 가격,63,21-2,http://tearstop.seoul.go.kr/mulga/photo/20111108095530.JPG,37.53927948,127.0895514,광진구,구의동,광진구 구의동 자매식당,1492791228
13,4826,김밥나라,1,한식,서울특별시 광진구 용마산로 52 (중곡동),446-2442        , 중곡동길에서 신성시장길 입구,영업시간 : 24시간 좌석수 : 휴무일 : 둘째넷째 일요일 배달 : 예약 : 카드 : 주차 : 홈페이지 주소 : 전자우편주소 :     , o 옥외 가격표시 우수업소 - 가격이 저렴하고 청결,63,21-2,http://tearstop.seoul.go.kr/mulga/photo/STA71371.JPG,37.55833658,127.0880062,광진구,중곡동,광진구 중곡동 김밥나라,32088848
14,6378,다비다식당,1,한식,서울특별시 광진구 동일로 444 (중곡동),466-1074        ,중곡동성원아파트 지나 현대주유소 맞은편,영업시간 : 11:00 ~ 20:00 좌석수 : 50 휴무일 : 배달 : 예약 : 카드 : 주차 : 홈페이지 주소 : 전자우편주소 :  ,가격이 저렴하고 청결함,63,21-2,http://tearstop.seoul.go.kr/mulga/photo/20111108095547.JPG,37.56970056,127.0797764,광진구,중곡동,광진구 중곡동 다비다식당,18808869
15,6871,궁원 중화요리,2,중식,서울특별시 동대문구 사가정로 229 (장안동),2212-7749       ,장안2동 주민센터 길건너편 뚜레주르제과점 2층에 위치.,영업시간 : 11:00 ~ 21:00 휴무일 : 첫째셋째 화요일 명절 배달 : 가능 (할인적용은 안됨) 예약 : 가능 카드 : 가능 주차 : 가능(2~3대정도) 기타 : 세트메뉴 4인가족 식사 가능 ,맛고 성실 친절로 승부합니다. 꿈나무카드 가맹점으로 오기 힘든 아이들을 위해 배달까지 가능합니다. ,62,21-2,http://tearstop.seoul.go.kr/mulga/photo/20130820140648.jpg,37.57894686,127.0705533,동대문구,장안동,동대문구 장안동 궁원 중화요리,36004924
16,7142,제주토방탕수육,2,중식,서울특별시 송파구 성내천로 212 (마천동),431-0049,전철노선:5호선마천역 2번출구 버스노선:3316.3315.3416.3214.3318.3314.3317 남천초등학교방면' ,영업시간 :11:00~23:00 좌석수 :4석 휴무일 :둘째 넷째주 월요일 배달 : 배달가능모든메뉴포장가능 예약 :가능 카드 :가능 주차 :가능 기타 : 제주축협에서 직송하는 제주도 돼지고기만을 사용하고 있음 ,15년 동안  한장소에서  운영하고 있습니다!!! 돼지고기는 제주산  생고기만을 사용합니다.(냉동고기는 사용 안함)~~~ 맛이좋습니다!!!  탕수육 전문점으로 단일품목만 취급하며 홀 방문시 저렴한 가격으로 제공 ,60,21-2,http://tearstop.seoul.go.kr/mulga/photo/20111104152729.jpg,37.50001784,127.151182,송파구,마천동,송파구 마천동 제주토방탕수육,36004929
17,6856,자매식당,1,한식,서울특별시 동대문구 이문로28길 16 (이문동),967-9358        ,한국외국어대학교 앞 지하차도 도입부의 편의점옆 골목으로 들어가 온누리성민약국 우측 골목에 위치.,영업시간 : 09:30~21:30 좌석수 : 36석 휴무일 : 매주일요일 명절 예약 : 가능 카드 : 가능 주차 : 불가  ,집에서 먹는 어머니의 손맛을 느낄 수 있으며 맛있고 푸짐하게 식사가 가능합니다.  ,60,21-2,http://tearstop.seoul.go.kr/mulga/photo/20130820140706.jpg,37.59549733,127.0605629,동대문구,이문동,동대문구 이문동 자매식당,1907395009
18,7501,한연수짜장,2,중식,서울특별시 송파구 송이로31길 4-11 (문정동),402-3414,전철노선:8호선 문정역 2번출구 문정고등학교지나 장지동주민센터방면 삼성래미안 하차 공원쪽으로 지나 상가 밀집지역으로 20m 버스노선:3215.3418.301.3011.401.3319' ,영업시간 : 11:00~19:00 좌석수 :8 휴무일 : 둘째 넷째 월요일 배달 : X 예약 : O 카드 : O 주차 : X  ,배달제외로 인건비 절감  저렴한 가격은 물론. 신선하고 질 좋은 식재료로 정성껏 준비하여 손님을 맞이하며  청결 깨끗한 요리작업을 볼 수 있게 주방이 오픈되어 있습니다. ,60,21-2,http://tearstop.seoul.go.kr/mulga/photo/20110707191607.jpg,37.48803873,127.132459,송파구,문정동,송파구 문정동 한연수짜장,20868139
19,1113,해주냉면,1,한식,서울특별시 송파구 올림픽로12길 5-22 (잠실동),424-7192        ,전철노선:2호선 신천역 4번출구 맥도날드 골목안 좌회전 로즈모텔앞 위치 버스노선:600.6006.1100.2000.3217.3315.등 잠실롯데백화점방면버스 모두 ,영업시간 : 11:30 ~ 21:00 좌석수 : 40석 휴무일 : 매주일요일 배달 : 무 예약 : 가능 카드 : 가능 주차 : 2대 ,냉면양념의 맵고 새콤달콤한 특별한 맛과 20년 전통의 특별한 노하우가 있으며. SBS MBC TV에 방영된 업소입니다. 단일메뉴로 반찬 식자재 절감효과로 저렴한 가격제공가능,60,21-2,http://tearstop.seoul.go.kr/mulga/photo/20111104155711.jpg,37.5109865,127.0841391,송파구,잠실동,송파구 잠실동 해주냉면,1920811115
20,7338,우돈골,1,한식,서울특별시 송파구 위례성대로20길 24 (오금동),3401-4585,전철노선: 5호선 방이역 2번출구 도보 3분  버스노선: 3214321632203414  오금동 대림아파트 정류장 하차 도보3분 ,영업시간 : 오전11시 ~ 새벽 1시  좌석수 : 테이블 12 의자 50 휴무일 : 연중무휴  배달 : ×  예약 : 가능  카드 : 가능  주차 : 가능  ,점심특선으로 가격할인제공  국내산 삼겹살 600g 22000원으로 푸짐한 양과 저렴한 가격 점심특선 메뉴로 인근 직장인들이 많이 이용함 ,60,21-2,http://tearstop.seoul.go.kr/mulga/photo/20100726170307.jpg,37.50926539,127.1272557,송파구,오금동,송파구 오금동 우돈골,-
21,5713,김밥나라,1,한식,서울특별시 강서구 양천로59길 46 (가양동),02-3664-8327,강서구청 가양동 별관 주위,영업시간 : 24시간 좌석수 : 20개 휴무일 : 미정 배달 : 불가 예약 : 가능 카드 : 가능 주차 : 가능 홈페이지 주소 : 없음 전자우편주소 : 없음 기타 : 없음   ,다양한 메뉴 친절하고 깨끗합니다.,59,21-2,http://tearstop.seoul.go.kr/mulga/photo/g3_2.jpg,37.56104156,126.860025,강서구,가양동,강서구 가양동 김밥나라,36004204
22,7299,백미식당,1,한식,서울특별시 강서구 공항대로59가길 25 (등촌동),02-3662-9288,등촌역2번출구에서 서울신기술 창업센터방면으로 100m,영업시간 :오전9시~오후9시 좌석수 :7개 휴무일 :매주일요일 배달 :가능 예약 :가능 카드 :가능 주차 :불가능 홈페이지 주소 : 전자우편주소 :   ,저렴한가격으로 가까운곳은  배달서비스도 가능합니다. 모든 음식을 조달하지 않고 직접 조리합니다. ,56,21-2,http://tearstop.seoul.go.kr/mulga/photo/20100722163135.jpg,37.55175699,126.8652265,강서구,등촌동,강서구 등촌동 백미식당,-
23,1460,남영해물탕,1,한식,서울특별시 용산구 한강대로80길 12 (남영동),798-2545        ,숙대입구역(6번 출구)에서 도보로 200m 거리,영업시간 : 10:00~22:00 좌석수 : 26석 휴무일 : 연중무휴 예약 : 가능 카드 : 가능 주차 : 없음 배달: 불가 ,깨끗하고 청결한 위생관리와 항상 신선한 재료와 각종 해물을 산지에서 직송하여 사용하는 모범업소임,56,21-2,http://tearstop.seoul.go.kr/mulga/photo/20130708102620.jpg,37.54254316,126.973487,용산구,남영동,용산구 남영동 남영해물탕,18715342
24,736,장수설렁탕,1,한식,서울특별시 송파구 백제고분로 148 (잠실동),415-1472        ,버스노선: 340.363.3314.3417.4318 잠실본동 주민센터 인근 형지빌딩 ' ,영업시간 : 24시간 좌석수 : 40석  휴무일 : 연중무휴  예약 : 가능  카드 : 가능  주차 : 10대 배달 : 불가  ,15년 한 자리 영업으로 단골고객 보유,56,21-2,http://tearstop.seoul.go.kr/mulga/photo/20111104160604.jpg,37.50548704,127.0831211,송파구,잠실동,송파구 잠실동 장수설렁탕,18570229
25,6759,부부칼국수,1,한식,서울특별시 강서구 강서로56가길 47 (등촌동) 101호 동진빌딩,02-3662-4594,발산사거리에서 가양동쪽으로 우리은행 영광교회 뒤편 호서전산학교,영업시간 :09:00~21:30 좌석수 :50석 휴무일 :일요일 배달 :가능 예약 :가능 카드 :가능 주차 :가능 홈페이지 주소 : 전자우편주소 :  ,직접 손으로 만든 김치로 만두와 칼국수 냉콩국수 10년이 넘도록 한곳에서 같은 재료와 같은 가격으로~~ 주변 호서전문 학생들은 20% 할인 해드립니다. ,41,21-2,http://tearstop.seoul.go.kr/mulga/photo/d3_2.jpg,37.56170219,126.8400994,강서구,등촌동,강서구 등촌동 부부칼국수,13152434
26,7833,별미 바지락칼국수,1,한식,서울특별시 강동구 풍성로 160 (성내동),470-7393,,영업시간 : 좌석수 : 휴무일 : 배달 : 예약 : 카드 : 주차 : 홈페이지 주소 : 전자우편주소 :   ,칼국수 비빔국수 등이 매우 맛있고 식사시간에 줄서서 먹는 집입니다. 소비자단체의 추천을 받은 청결함이 매우 뛰어난 업소입니다.,33,21-2,http://tearstop.seoul.go.kr/mulga/photo/20220527141256.jpg,37.53058027,127.1296127,강동구,성내동,강동구 성내동 별미 바지락칼국수,-
27,7832,뚝배기,1,한식,서울특별시 강동구 양재대로 1389 (성내동),476-6005,길동 사거리에서 둔촌 방향으로 한 정거장 떨어진 도로변에 위치합니다. 주말이면 하남행 등산객들의 발길로 분주합니다.,영업시간 : 24시간 좌석수 : 15석 휴무일 : 배달 : 불가 예약 : 불가 카드 : 가능 주차 : 불가 홈페이지 주소 : 전자우편주소 :   ,모든메뉴가 3000원입니다. 소비자단체의 추천업소로 청결한 위생과 맛을 모두 자랑합니다. ,32,21-2,http://tearstop.seoul.go.kr/mulga/photo/20220527141321.jpg,37.53018558,127.1367675,강동구,성내동,강동구 성내동 뚝배기,944494960
28,7802,박리김밥,1,한식,서울특별시 중랑구 공릉로2길 22 (묵동),02-949-7101,먹골역(7호선) 1번 출구로 나와서 묵동 삼거리에서 우회전하면 전방 100m앞에 위치,영업시간 : 6시 ~ 23시 좌석수 : 28석 휴무일 : 1 3주 월요일 예약 : 가능 배달 : 가능 카드 : 가능 주차 : 가능 취급품목 : 김밥 2000원 기타: 업소가 매우 깨끗하며 친절함  ,먹골역에서 가까워 교통이 편리하고 업소가 매우 깨끗하며 치즈김밥 순두부찌개 등 음식이 맛있어 오랜 단골들 확보 대부분의 메뉴가 5000원으로 가격도 저렴해서 인근 직장인들이 많이 찾는 곳 '주변 평균가격 보다 7~15% 저렴한 업소로 1년 동안  동일 가격유지' ,23,21-2,http://tearstop.seoul.go.kr/mulga/photo/20151126104526.jpg,37.61195597,127.0790364,중랑구,묵동,중랑구 묵동 박리김밥,36004211
29,7663,소소한날,1,한식,서울특별시 영등포구 도림로 462 (문래동3가),02-2068-2220,국화아파트 상가 1층,영업시간 : 10:00-22:00 좌석수 : 56석 휴무일 : 휴무없음 배달 : 가능 예약 : 가능 카드 : 가능 주차 : 가능 홈페이지 주소 : 전자우편주소 : 기타 :주인이 주방 및 총괄가격동결로 물가안정에 동참   ,소고기는 한우만 취급하고 등심 가격이 저렴함 돼지고기는 암돼지만 사용(200g 9000원) ※경로우대계란찜 무한리필,22,21-2,http://tearstop.seoul.go.kr/mulga/photo/20150427152616.jpg,37.51577851,126.8923582,영등포구,문래동,영등포구 문래동 소소한날,19007398
30,3887,부남돌구이,1,한식,서울특별시 종로구 대학로2길 65-5 (효제동),742-2451        ,지하철1호선 종로5가역3번출구에서 건영의료기 골목에 위치.50M정도에 위치 버스노선:262 720 271 260 261270 7025등 다수가 있음.,영업시간 :오전10:00 ~ 오후10:00 좌석수 :46 휴무일 :매주일요일 배달 :가능 예약 :가능 카드 :가능 주차 : 불가    ,오랫동안 숙련된 사장님의 손맛에 깔끔하고 신선한 재료로써 주위에 직장인들이 점심시간에 기다려야 할 정도랍니다. 사장님의 자랑할 만한 요리는 쭈꾸미 철판 볶음이랍니다.,10,21-2,http://tearstop.seoul.go.kr/mulga/photo/00003887.jpg,37.57179175,127.0055853,종로구,효제동,종로구 효제동 부남돌구이,-
31,7574,대림각,2,중식,서울특별시 노원구 섬밭로 263 (중계동),02-949-2748,,영업시간 :10:30 ~ 21:00 좌석수 : 135석 휴무일 : 연휴때 설추석 예약가능여부 : 가능 배달가능여부 : 가능 주차가능여부 : 가능 카드사용가능      ,영업장 청결 및 3년째 저렴한 가격.  ,9,21-2,http://tearstop.seoul.go.kr/mulga/photo/20140122161756.JPG,37.63913993,127.0638195,노원구,중계동,노원구 중계동 대림각,36004923
32,2022,봉주르,1,한식,서울특별시 마포구 와우산로 155-1 (서교동),332-8373        ,홍대방향의 산울림 소극장 바로 옆에 위치 하고 있습니다. ,영업시간 :10:00-24:00 좌 석 수  : 45석 휴 무 일  : 매주 일요일 예    약   : 가능 카    드   : 가능       ,저희 업소는 단골을 위주로한 편안하고 아늑한 분위기의 업소를 표방합니다.  커피국산차도 있습니다. 한가지 메뉴가 아닌 주인아주머니의 손맛에따라 매일 메뉴가 바뀝니다.,9,21-2,http://tearstop.seoul.go.kr/mulga/photo/00002022.jpg,37.55497892,126.9300363,마포구,서교동,마포구 서교동 봉주르,34807268
33,2225,일봉,3,경양식일식,서울특별시 종로구 종로 192-1 (종로4가),2266-2540       , 종로5가 지하철역 예지상가 2번출구  파랑색 버스 143 150 160 161 200번 타고 종로 5가 하차,영업시간 : 오전11시 - 오후10시 좌석수 : 60석 휴무일 : 매주일요일 배달 : 무 예약 : 가능 카드 : 가능 주차 : 불가 홈페이지 주소 : 없음   ,종업원 인건비를 생선에 투자하여 신선하고 저렴한가격으로 드실수 있도록 최선을 다하고 있습니다,9,21-2,http://tearstop.seoul.go.kr/mulga/photo/00002225.jpg,37.57046489,126.9990785,종로구,종로4가,종로구 종로4가 일봉,38009845
34,4526,깡통참숯돼지갈비,1,한식,서울특별시 성북구 보문로30라길 17 (동선동2가),928-3343        ,성북구청 후문에서 성신여대방향으로 우측에 20M,영업시간 : 10시 ~ 23시 좌석수 :40 휴무일 : 없음 배달 :   불가 예약 : 가능 카드 : 가능 주차 : 가능 홈페이지 주소 : 전자우편주소 :  ,국내산 고기만을 사용하며 특이 사항은 직장인을 대상으로 점심메뉴로 옛날식도시락으로 7가지의 반찬과 하루하루 다른 반찬과 매일 담그는 신선한 겉절이등으로 손님에 입맛을 돋우는 맛으로 가격은 5천으로 저렴한 가격으로 직장인들에게 가정에서 먹는 맛 그대로를 전해드리려 노력하고 있습니다. 주인이 직접 인근전통시장에 야채를 배달받아 박리다매 중,9,21-2,http://tearstop.seoul.go.kr/mulga/photo/20160104160204.JPG,37.58973215,127.0187619,성북구,동선동,성북구 동선동 깡통참숯돼지갈비,36004757
35,2832,투가리올림픽,1,한식,서울특별시 송파구 백제고분로 465 (방이동),386-7004, 전철노선:2.8 호선 잠실역.몽촌토성역 버스노선:3214.3216.3313.3315 3414.3411.송파구청 하차 방이사거리 방이맛골에 위치하며 방이시장 남문에 위치함.  올림픽공원 남이문쪽에 가까이 위치하고 있음,영업시간 :24시간 좌석수 :35석 휴무일 :연중무휴 예약 :가능 카드 :무 배달 : 불가 주차 : 불가   ,인건비 절약(고객 셀프서비스) 실내가 깨끗하며 화학조미료를 절대 사용하지 않고  신선한 재료로 맛을 낸다. 20년의 손맛으로 끓여주는 깔끔한 맛 ,9,21-2,http://tearstop.seoul.go.kr/mulga/photo/00002832.jpg,37.51218629,127.1130539,송파구,방이동,송파구 방이동 투가리올림픽,1163150239
36,6665,산정,1,한식,서울특별시 중구 동호로 288 (장충동2가),2277-0913       ,3호선 동대입구역 1번 출구쪽 장충동 앰버서더서울풀만호텔 건너편 S-oil근처 ,(2022년 5월 현재) ○ 영업시간 : 11:00~22:00 (휴무일: 1 3째주 일요일) ○ 좌석수 : 80석 ○ 배달 : 불가  ○ 주차 : 2대 정도 가능 ○ 기타: 예약 가능 카드 가능      ,제주도산 고기만 사용합니다.  오랫동안 고기 맛을 인정받아 단골고객이 많은 가게입니다. '식객 허영만의 백반기행' (79회)에도 소개되었어요~,9,21-2,http://tearstop.seoul.go.kr/mulga/photo/20130604113250.JPG,37.56021602,127.0031204,중구,장충동,중구 장충동 산정,18054957
37,7340,동춘원,2,중식,서울특별시 중랑구 봉우재로71길 41 (망우동),02-434-9454, 우림시장사거리에서 용마프라자 지나 우림시장 주차장 앞 ,영업시간 :11:00~20:30 좌석수 : 16 휴무일 : 24주 화요일 배달 : 불가능 예약 : 불가능 카드 : 가능 주차 : 불가능 취급품목 : 자장면 2000원 짬뽕 2500원 기타: '배달은 하지 않고 홀에 오시는 손님에게만 저렴한 가격으로  판매'    ,주변 평균가격보다 약 35% 저렴한 업소로 사장님  부부가 직접 요리 서빙하여 인건비 절감',9,21-2,http://tearstop.seoul.go.kr/mulga/photo/20100802163706.JPG,37.5963378,127.0978063,중랑구,망우동,중랑구 망우동 동춘원,20919368
38,7595,다운이,1,한식,서울특별시 노원구 한글비석로 444 (상계동) 교림노원프라자 지하1층,02-937-1160,,영업시간 : 10:00 ~ 19:30 좌석수 : 8석  휴무일 : 주일 예약가능여부 : 불가 주차가능여부 : 가능 배달 : 불가 카드사용불가       ,가족(본인모)이 직접운영함,8,21-2,http://tearstop.seoul.go.kr/mulga/photo/20140122161913.JPG,37.66361305,127.0684926,노원구,상계동,노원구 상계동 다운이,36004022
39,1145,원조막국수,1,한식,서울특별시 강북구 노해로33길 49 (수유동),991-5215        ,광산부페4거리에서 쌍문교방향으로 200미터 올라가 이광언내과 맞은편 디지털LG대리점골목으로 500미터 올라가 우이시장 못미처 좌측에 위치.,영업시간 : 9시~21시 좌석수 : 48석 (12개 테이블) 휴무일 : 없음 배달 : 불가 예약 : 안함 카드 : 가능 주차 : 불가  ,25년 경력의 사골로 국물을 낸 육수와 열무오이배참깨 등 각종 재료를 아끼지 않고 사용하여 푸짐하며 매콤한 김칫국물 맛과 갈아 넣은 얼음 맛으로 시원한 국물맛이 일품이다.,8,21-2,http://tearstop.seoul.go.kr/mulga/photo/00001145.gif,37.64672082,127.0218646,강북구,수유동,강북구 수유동 원조막국수,36003825
40,4955,김밥천국,1,한식,서울특별시 강서구 가로공원로76길 61 (화곡동),02-2692-5955,화곡대림아파트1동 강수원 치과 맞은편에 있는 화곡중앙의원 뒷편,,,8,21-2,http://tearstop.seoul.go.kr/mulga/photo/hh_10.jpg,37.53442541,126.8382672,강서구,화곡동,강서구 화곡동 김밥천국,37687259
41,2700,제주똥돼지촌,1,한식,서울특별시 구로구 구로동로28길 98 (구로동),02-837-3077,구로4동사무소 옆,영업시간 : 14:00 ~ 24:00 좌석수 : 36석 휴무일 : 명절 배달 : 없음 예약 : 가능 카드 : 가능 주차 : 12대 홈페이지 주소 : X 전자우편주소 : X 기타 :         ,#NAME?,8,21-2,http://tearstop.seoul.go.kr/mulga/photo/00002700.jpg,37.49172629,126.8892641,구로구,구로동,구로구 구로동 제주똥돼지촌,32101231
42,7651,세림가든,1,한식,서울특별시 영등포구 경인로 874 (영등포동1가),02-2671-5678,롯데백화점(영등포) 옆 신길역 방향 100m 대로변,영업시간 : 11:00-23:00 좌석수 : 70석 휴무일 : 휴무없음 배달 : 불가 예약 : 가능 카드 : 가능 주차 : 가능 홈페이지 주소 : 전자우편주소 : 기타 : 재료는 주인이 직접구매 및 주방담당  ,교통이 편리하고 매장이 청결 저렴한 가격의 세트 메뉴 판매 등 전체 메뉴가 비교적 저가격 유지 직원의 친절한 서비스,8,21-2,http://tearstop.seoul.go.kr/mulga/photo/20121108163234.jpg,37.51719978,126.9098191,영등포구,영등포동,영등포구 영등포동 세림가든,-
43,8210,다사랑분식,1,한식,서울특별시 관악구 난우길 18 (신림동),852-5010,난곡동 세이브마트 주변에 위치,영업시간 : 오전 8시 ~ 오후 9시 배달 : 불가능 주차 : 불가능 예약 : 가능 카드 : 불가능 좌석수 : 8석 휴무일 : 일요일    ,▷관악구 평균가격보다 20%이상 파격 저렴 ▷영등포시장에서 신선하고 저렴한 재료를 구입하여 어머니의 손맛으로 음식 제공 ▷다른 품목도 저렴. 이용자 많음,8,21-2,http://tearstop.seoul.go.kr/mulga/photo/20120703171618.jpg,37.4745872,126.9187257,관악구,신림동,관악구 신림동 다사랑분식,1731458229
44,8188,수제비손칼국수,1,한식,서울특별시 관악구 인헌4길 3 (봉천동),876-2517,원당시장' 주변에 위치,영업시간 : 오전 9시 ~ 오후 9시 배달 : 불가능 주차 : 불가능 예약 : 가능 카드 : 가능 휴무일 : 일요일 좌석 : 6석     ,▷전통시장(원당시장) 주변에 위치 ▷식재료를 원당시장에서 저렴하게 구입 ▷관악구 평균가격보다 10% 저렴,7,21-2,http://tearstop.seoul.go.kr/mulga/photo/20120703160518.jpg,37.4744541,126.9666007,관악구,봉천동,관악구 봉천동 수제비손칼국수,32875906
45,8136,미미치킨,4,기타외식업(다방패스트푸드등),서울특별시 서초구 서초대로 108 (방배동),586-7130,7호선 내방역1번출구.,영업시간 :16:00~02:00 좌석수 :25 휴무일 :연중무휴 배달 :불가 예약 :가능 카드 :가능 주차 :가능 홈페이지 주소 : 전자우편주소 : ,하림닭 사용하여 주인부부 직접조리연예인들도 많이 찾는 등 맛에 자신있음  미국에 2호점 개설,7,21-2,http://tearstop.seoul.go.kr/mulga/photo/20120703112755.jpg,37.48752619,126.9942016,서초구,방배동,서초구 방배동 미미치킨,18374204
46,8097,미성각,2,중식,서울특별시 도봉구 노해로 389 (창동),02-996-7766,1호선 4호선 창동역 1번출구에서 335m,영업시간 : 11:00~21:00 좌석수 : 단체석 휴무일 : 연중무휴 배달 : 가능 예약 : 가능 카드 : 가능 주차 : 불가 홈페이지 주소 : 무 전자우편주소 :    ,식당에서 먹을시 저렴한 가격으로 짜장면짬뽕을 맛볼수 있는 업소로 배달시 가격을 차등하여 적용함,7,21-2,http://tearstop.seoul.go.kr/mulga/photo/20120620154616.jpg,37.65276817,127.0513356,도봉구,창동,도봉구 창동 미성각,20603907
47,8082,도봉산콩나물국밥,1,한식,서울특별시 도봉구 도봉로181길 53 (도봉동),02-955-9335,1호선 도봉역 1번출구에서 680m,영업시간 : 08:30-22:00 좌석수 : 단체석 휴무일 :  배달 : 무 예약 : 가능 카드 : 가능 주차 : 가능 홈페이지 주소 : 전자우편주소 : 기타 :     ,도봉산 시장 속으로 들어가면 도봉산콩나물국집이 위치해  있음. 속 쓰리고 따뜻한 국물이 생각날 때 찾으면 좋을 듯.,7,21-2,http://tearstop.seoul.go.kr/mulga/photo/20120620141021.jpg,37.68461676,127.0429647,도봉구,도봉동,도봉구 도봉동 도봉산콩나물국밥,21559544
48,7428,신왕짜장,2,중식,서울특별시 관악구 난곡로 105 (신림동),839-9989,신림종합복지관 맞은 편,영업시간 : 오전 10시 ~ 오후 9시 좌석수 : 50석 휴무일 : 매주 화요일 배달 : 불가 카드 : 가능 주차 : 불가능 예약 : 가능   ,▷관악구 평균가격보다 10%이상 파격 저렴 ▷신림종합복지관 맞은편 도로변에 있어 찾기 쉬움,7,21-2,http://tearstop.seoul.go.kr/mulga/photo/20101214111844.JPG,37.46495151,126.9191076,관악구,신림동,관악구 신림동 신왕짜장,-
49,8697,학생회관분식,1,한식,서울특별시 강동구 구천면로 404 (천호동) 11호,02-486-4062,명일역 사거리에서 성덕여상 골목으로 들어오시면 됩니다.,영업시간 : 11시30분 ~ 22시 좌석수 : 30석 휴무일 : X 배달 : X 예약 : X 카드 : O 주차 :어려움 홈페이지 주소 : X 전자우편주소 : X  ,저렴한 가격에 푸짐한 양으로 단골손님 많음. 작은 가게지만 깨끗한 업소위생관리와 친절도로 손님 만족도 높음. 학생 500원할인메뉴 다양. ★★짜장떡볶이 추천메뉴★★,7,21-2,http://tearstop.seoul.go.kr/mulga/photo/20140428193001.jpg,37.5505255,127.1434647,강동구,천호동,강동구 천호동 학생회관분식,36004162
50,8119,참참치킨,4,기타외식업(다방패스트푸드등),서울특별시 서대문구 세검정로 49-1 (홍제동),396-9285,,영업시간 : 좌석수 : 휴무일 : 배달 : 예약 : 카드 : 주차 : 홈페이지 주소 : 전자우편주소 : ,종업원을 두지 않고 직접 운영하여 인건비를 절감하고 프랜차이즈 치킨업체처럼 광고비에 많이 투자 하지 않고 저렴한 가격으로 입소문을 통해 박리다매 ,7,21-2,http://tearstop.seoul.go.kr/mulga/photo/20120621152036.JPG,37.59255155,126.9465452,서대문구,홍제동,서대문구 홍제동 참참치킨,20343664
51,7899,길손한정식,1,한식,서울특별시 구로구 고척로40길 33-5 (고척동),02-2625-0277,개봉북지점 기업은행 전주상회 안쪽,영업시간 :11:00~22:00 좌석수 :60석 휴무일 :명절만 배달 :근교 가능 예약 :가능 카드 :가능 주차 :개봉주민센터주차장 2대 가능 홈페이지 주소 : X 전자우편주소 : X  ,가격이 저렴하고 청결 신선한 재료를 사용,7,21-2,http://tearstop.seoul.go.kr/mulga/photo/20111222080111.JPG,37.5016661,126.851131,구로구,고척동,구로구 고척동 길손한정식,36004740
52,7653,제주흑돼지,1,한식,서울특별시 영등포구 영중로4길 5 (영등포동3가),02-2678-0610,영등포역(신세계백화점) 맞은편 음식점 밀집지역에 위치,영업시간 : 11:00-23:00 좌석수 : 30석 휴무일 : 휴무없음 배달 : 불가  예약 : 가능 카드 : 가능 주차 : 가능 홈페이지 주소 : 전자우편주소 : 기타 :가격동결로 물가안정에 동참  ,#NAME?,7,21-2,http://tearstop.seoul.go.kr/mulga/photo/20121108163922.jpg,37.51730064,126.9069661,영등포구,영등포동,영등포구 영등포동 제주흑돼지,1984246053
53,879,감베로니,3,경양식일식,서울특별시 용산구 한강대로81길 5 (갈월동),3273-1791       , 남영동 전철역(1호선)에서 골목 약 200m 거리,영업시간 :10:00~22:00 좌석수 : 20석 휴무일 : 첫째주 일요일 배달 : 불가 예약 :예약환영 카드 : 카드 사용 가능 주차 : 불가  ,깨끗하고 친절하며 청결한 위생관리와 신선하고 좋은 재료를 매일 엄선하여 제공,7,21-2,http://tearstop.seoul.go.kr/mulga/photo/20130708102922.jpg,37.54297934,126.9719461,용산구,갈월동,용산구 갈월동 감베로니,13575194
54,8140,더구어,1,한식,서울특별시 서초구 효령로31길 58 (방배동),3474-9293,2호선 방배역3번출구 먹자골목 500m오시면 방배아크로비스타 앞.,영업시간 :11:00~24:00 좌석수 :100 휴무일 :연중무휴 배달 :불가 예약 :가능 카드 :가능 주차 :가능 홈페이지 주소 : 전자우편주소 : ,저렴한가격으로 인근대학생 손님들에게 인기가 많음   7년전가격을 현재까지 유지,7,21-2,http://tearstop.seoul.go.kr/mulga/photo/20120703113029.jpg,37.48368318,126.9955076,서초구,방배동,서초구 방배동 더구어,-
55,7901,대형갈비,1,한식,서울특별시 구로구 구로동로 100 (구로동),02-864-0719,구로4동 우체국옆 우리은행쪽 SK골목길,영업시간 : 08:00~22:30 좌석수 : 80석 휴무일 : 첫째주 월요일.명절 배달 : 불가 예약 : 가능 카드 : 가능 주차 : 불가 홈페이지 주소 : X 전자우편주소 : X ,가격이 저렴하고 청결,7,21-2,http://tearstop.seoul.go.kr/mulga/photo/20111222080034.jpg,37.48759022,126.8851105,구로구,구로동,구로구 구로동 대형갈비,1163016048
56,7903,명가영양돌솥밥,1,한식,서울특별시 구로구 구로동로18길 12 (구로동),02-858-5977,구로4동우체국옆 우리은행 구로동로18길 좌회전 우측,영업시간 : 10:00~22:00 좌석수 : 10석 휴무일 : 매월첫째주 월요일만 명절 배달 : 불가 예약 : 가능 카드 : 가능 주차 : 불가 홈페이지 주소 : X 전자우편주소 : X  ,가격이 저렴하고 청결,7,21-2,http://tearstop.seoul.go.kr/mulga/photo/20120109182543.jpg,37.48809371,126.8852126,구로구,구로동,구로구 구로동 명가영양돌솥밥,20849349
57,7541,삼성회관,1,한식,서울특별시 중구 청구로3길 16 (신당동),02-2231-8520,청구역 3번출구에서 삼성아파트방향으로 70미터,○ 영업시간 :11:00~22:00 (휴무일 : 매월 24째주 일요일) ○ 좌석수 : 40석 ○ 배달 : 불가 ○ 주차 : 불가 ○ 기타: 예약 가능 카드 가능  ,친절하신 주인이 모든 음식을 직접 조리합니다. 김치까지두요!,6,21-2,http://tearstop.seoul.go.kr/mulga/photo/20220511194451.jpg,37.558876,127.0153513,중구,신당동,중구 신당동 삼성회관,18703031
58,4019,백리향,2,중식,서울특별시 성동구 상원6길 10-1 (성수동1가),498-1013     ,뚝섬역 4번출구로부터 2분거리,영업시간 : 11:30~20:00 좌석수 : 28석 휴무일 : 매주 일요일 배달 : X 예약 : ○ 카드 : X 주차 : X     ,주인이 시장에서 식자재 직접 조달 가격저렴 ,6,21-2,http://tearstop.seoul.go.kr/mulga/photo/백리향.jpg,37.54875821,127.0493636,성동구,성수동,성동구 성수동 백리향,1124909929
59,2322,동해루,2,중식,서울특별시 성동구 왕십리로19길 8-1 (행당동),2292-5342       ,한양대학교에서 왕십리 방면으로 300m  국철 다니는 굴다리 건너편 골목으로 10m위쪽에 위치함,영업시간 : 11:00~23:00 좌석수 : 40석 휴무일 : 매월 첫째셋째 화요일 배달 : x 예약 : X 카드 : X 주차 : X     ,쾌적한 환경 친절하며 소박한 업소 맛깔스러움 음식 가격의 인상없이 작년가격으로 자장면 등을 맛 볼 수 있음 주인이 시장에서 식자재 직접 조달,6,21-2,http://tearstop.seoul.go.kr/mulga/photo/00002322.jpg,37.5575285,127.0385979,성동구,행당동,성동구 행당동 동해루,18777124
60,443,무진장,3,경양식일식,서울특별시 용산구 원효로 212 (원효로2가),712-8814        , 구 용산구청 사거리 (구청 사거리에서 전자상가 쪽으로 50m 위치)  버스정류장(신계대림아파트) 하차 ,영업시간 : 11:00~22:00 좌 석 수 : 84석 휴 무 일 : 없음 배    달 : 불가 예    약 : 예약환영 카    드 : 카드사용 가능 주차 : 없음 홈페이지 주소 : 전자우편주소 : ,청결한 위생관리와 매일 싱싱한 재료로 요리하며 종업원 모두가 성심성의껏 손님을 대함,6,21-2,http://tearstop.seoul.go.kr/mulga/photo/20110727150223.JPG,37.53747293,126.9656648,용산구,원효로,용산구 원효로 무진장,18141856
61,7850,청해루,2,중식,서울특별시 송파구 거마로20길 17 (마천동),404-5586,전철노선:5호선 마천역 1번출구 마천1동 주민센터방면 버스노선:3316.3315.3416.3214.3318.3317.5  마천사거리 농협뒷편.마천시장인접'  ,영업시간:11:00~21:00 휴무일: 매주 화요일 좌  석:48석 배  달:불가 주  차: 2대 가능, 예약 :가능 카드 :가능   ,6,21-2,http://tearstop.seoul.go.kr/mulga/photo/20120703114037.JPG,37.49757895,127.1486662,송파구,마천동,송파구 마천동 청해루,18891787
62,7911,설가네부대찌개,1,한식,서울특별시 구로구 경인로 318-9 (개봉동),02-2613-2246,1호선 개봉역에서 하차 개봉사거리 k컨벤션 옆,영업시간 : 10:30~22:00 좌석수 : 52석 휴무일 : 매주 일요일 배달 : 불가(가끔 가능) 예약 : 가능 카드 : 가능 주차 : 가능 홈페이지 주소 : X 전자우편주소 : X   ,위생관리를 철저하게 하며 고객에게 부담되지않는 합리적인 가격,6,21-2,http://tearstop.seoul.go.kr/mulga/photo/20111222075818.JPG,37.49673304,126.8557302,구로구,개봉동,구로구 개봉동 설가네부대찌개,18458904
63,7731,태능숯불갈비,1,한식,서울특별시 동대문구 고산자로30길 17 (용두동),966-5687,동대문구청 후문쪽 골목 4거리 경동시장 방면 버스: 260 261 262 270 271 2233,영업시간 :10:00-24:00 좌석수 :48석 휴무일 :명절 배달 : 무 예약 :가능 카드 :가능 주차 :가능 홈페이지 주소 : 전자우편주소 :    ,오랜 정통있는 우리업소는 맛깔나고 저렴한 가격으로 손님을 모십니다.,6,21-2,http://tearstop.seoul.go.kr/mulga/photo/20120417114429.JPG,37.57601396,127.0393431,동대문구,용두동,동대문구 용두동 태능숯불갈비,18841274
64,6739,신가네김밥타운,1,한식,서울특별시 서대문구 증가로25길 4 (북가좌동),373-1187        ,,영업시간 : 06:00 ~ 19:00 좌석수 : 20석 휴무일 : 배달 : 불가 예약 : 가능 카드 : 사용안됨 주차 : 불가 홈페이지 주소 : 전자우편주소 : ,- 1년째 가격 동결 - 저렴한 가격 비결 : 직접 식자재 구입 마진율을 낮춰서 박리다매,6,21-2,http://tearstop.seoul.go.kr/mulga/photo/20110817141405.JPG,37.58167048,126.9139717,서대문구,북가좌동,서대문구 북가좌동 신가네김밥타운,-
65,1476,라푸스코 마포점,4,기타외식업(다방패스트푸드등),서울특별시 마포구 만리재옛길 18 (신공덕동),702-4333        ,공덕오거리에서 지방재정회관 뒷편 공덕초등학교 정문 앞,영업시간 : 10:30- 23:00 좌  석 수 : 30석 휴  무 일 : 없음 배      달 : 가능 예      약 : 가능     ,회원제 실시로 맛있는 피자를 저렴하게 소비자가 원하는 장소로 즉시 배달해드립니다.  저렴한 가격에 피자를 제공하고자 부부가 운영하고 있으며 맛을 향상하고자 기술개발에 노력을 기울이고 있습니다.  또한 사장님의 친절은 고객을 언제나 기분좋게 합니다.,6,21-2,http://tearstop.seoul.go.kr/mulga/photo/00001476.jpg,37.54560445,126.9551838,마포구,신공덕동,마포구 신공덕동 라푸스코 마포점,13279525
66,8054,수원성갈비,1,한식,서울특별시 종로구 창신3길 9 (창신동),745-3576,동대문 3번출구로 나와서 걸으면 우리은행 보이고 조금만 걸으면  창신시장입구보임. 거기서 쭉 걸어올라오면 매운족발집보임. 그근처에 위치.,영업시간 : 14시 ~24시 휴무일 :무 배달 :가능 예약 :가능 카드 :가능 주차 :불가    ,창신동 시장 안에 위치한 업소로 수원식 양념 고기로 10년째 한자리에서 영업해 온 소문난 맛집 ,6,21-2,http://tearstop.seoul.go.kr/mulga/photo/20120619140132.jpg,37.57321826,127.0111721,종로구,창신동,종로구 창신동 수원성갈비,34363476
67,8148,시골마당,1,한식,서울특별시 서초구 강남대로23길 30 (양재동),577-9453,서초마을버스(08번 18번)일동제약 하차. 횡단보도건너 우리은행 두번째골목.,영업시간 :09:00~22:00 좌석수 :68 휴무일 :연중무휴 배달 :불가 예약 :가능 카드 :가능 주차 :가능 홈페이지 주소 : 전자우편주소 : ,육수 2종류 만들어 음식을 조리할 만큼 정성스럽고 청결을 최우선시 하여 단골손님들에게 인정받음,5,21-2,http://tearstop.seoul.go.kr/mulga/photo/20120703131306.jpg,37.47640024,127.0371687,서초구,양재동,서초구 양재동 시골마당,18750755
68,8088,시골짚,1,한식,서울특별시 도봉구 도봉로152길 35 (도봉동),02-954-5243,도봉구청 과 도봉2동 주민센터 맞은편에 있음,영업시간 : 11:00~22:00 좌석수 :  휴무일 :  배달 : 불가능 예약 :  가능 카드 : 가능 주차 : 불가능 홈페이지 주소 : 전자우편주소 : 기타 :      ,도봉구청사 주변에 위치하며 두툼한 고기가 일품임.,5,21-2,http://tearstop.seoul.go.kr/mulga/photo/20120620143016.jpg,37.66947801,127.0457387,도봉구,도봉동,도봉구 도봉동 시골짚,20908626
69,8217,초밥아저씨,3,경양식일식,서울특별시 관악구 신원로 23 (신림동) 관악종합시장 108 호,3281-2820,동부아파트 옆 관악종합시장내에 위치,영업시간 : 오전 12시 ~ 오후 10시 배달 : 불가능 주차 : 불가능 좌석 : 5석 휴무 : 일요일 예약 : 가능 카드 : 가능       ,▷전통시장(신원시장)내에 위치하여 다른 업소보다 저렴 ▷노량진 수산시장등 새벽 시장에서 저렴하고 신선한 재료 구입  ▷관악구 평균가격보다 파격 저렴,5,21-2,http://tearstop.seoul.go.kr/mulga/photo/20220718175444.jpg,37.48157679,126.9280632,관악구,신림동,관악구 신림동 초밥아저씨,19754004
70,8279,가마솥설렁탕,1,한식,서울특별시 구로구 고척로40길 33-4 (고척동),02-2615-5292,- 전철 1호선 개봉역 1번 출구(북광장)로 나와 마을버스 1번 8번을 타고 고척그린시장 하차후 고척2동 새마을 금고분소앞을 보시면 저희 가게가 있습니다. - 개봉사거리에서 도보10분 고척그린시장 고척2동 새마을금고 분소앞에 있습니다.,영업시간 : 11:30~22:30 좌석수 : 15석 휴무일 : 없음 배달 : 주변인근만 배달가능 예약 : 가능 카드 : 가능  주차 : X 홈페이지 주소 : X 전자우편주소 : ss5508220@hanmail.net ,10년 동안 동일한 가격으로 매일 밑반찬이 바뀝니다. 재료들이 신선하고 깔끔하여 맛이 좋습니다. ,5,21-2,http://tearstop.seoul.go.kr/mulga/photo/20120706154111.JPG,37.50159831,126.8508925,구로구,고척동,구로구 고척동 가마솥설렁탕,20841306
71,7058,연희골굼터,1,한식,서울특별시 서대문구 홍제천로 156-6 (연희동),3143-6883       ,홍연시장앞,영업시간 : 10:00~22:00 좌석수 : 40석 휴무일 : 배달 : 예약 : 카드 : 주차 : 홈페이지 주소 : 전자우편주소 :  ,- 가게가 청결하고 모든 음식을 직접 요리함 - 6개월째 가격 동결 - 저렴한 가격 비결 : 종업원을 두지 않아 인건비 절감,5,21-2,http://tearstop.seoul.go.kr/mulga/photo/20110817134328.jpg,37.57697449,126.930813,서대문구,연희동,서대문구 연희동 연희골굼터,-
72,6734,해주냉면,1,한식,서울특별시 서대문구 연세로12길 37-3 (창천동),393-2990        ,명물2거리 4-1,영업시간 : 11:00 ~ 22:00 좌석수 : 40석 휴무일 :  배달 :  예약 : 가능 카드 : 가능 주차 : 홈페이지 주소 : 전자우편주소 :  기타 :       ,- 친절하고 청결함 - 6개월째 가격 동결(냉면) - 저렴한 가격 비결 : 마진율을 낮춰서 박리다매 ,5,21-2,http://tearstop.seoul.go.kr/mulga/photo/20110817135632.jpg,37.55923855,126.9389414,서대문구,창천동,서대문구 창천동 해주냉면,-
73,7442,훼밀리김밥,1,한식,서울특별시 송파구 성내천로21길 12 (마천동 신동아아파트),406-5415,버스노선:  3314 3315 3317 3313 3318 윤진 빌딩 건너편 (구)국민은행 맞은편 정류장 앞 ,영업시간 :  24시간 좌석수 :  48 휴무일 :  연중무휴 배달 :  가능 예약 :  가능 카드 :  가능 주차 :  가능 기타 : 독거노인 식사제공  ,나눔과 기쁨 후원. 즉석김밥 신선한 재료와 모든 야채는  체인점이 아닌 가계에서 직접 재료 준비함  ,5,21-2,http://tearstop.seoul.go.kr/mulga/photo/20111104153351.jpg,37.50043153,127.1447443,송파구,마천동,송파구 마천동 훼밀리김밥,18892118
74,7855,일심해장국,1,한식,서울특별시 송파구 양산로 12 (거여동),407-6718,전철노선 : 5호선 거여역 6번출구 버스노선 : 3313.3217.3416 송파체육문화회관.거여동우체국건너편' ,영업시간 :24시간 휴뮤일:연중무휴 좌  석:90석 배  달:불가 예  약:불가 카  드:가능 주  차:가능   ,저희 업소는 항상 박리다매로저렴하고  최고의 품질로 임하고 있습니다' ,5,21-2,http://tearstop.seoul.go.kr/mulga/photo/20111104161707.jpg,37.48991126,127.1435904,송파구,거여동,송파구 거여동 일심해장국,36004446
75,8134,만나칼국수,1,한식,서울특별시 관악구 봉천로7길 23 (봉천동) 지하,888-8564,버스 정류장 롯데관악점 골목 ,영업시간 : 오전 11시 ~ 오후 8시 영업시간 : 11:00~20:00 배달 : 불가능 주차 : 가능(건물주변 4대) 예약 : 가능 좌석 : 60석 휴무일 : 매주 일요일 카드 : 가능        ,▷ 주방장을 따로 두지 않고 사장님이 직접 요리를 하여 인건비 절약 ▷ 관악구 평균가격보다 10% 저렴,5,21-2,http://tearstop.seoul.go.kr/mulga/photo/20120703111516.jpg,37.4905216,126.9263836,관악구,봉천동,관악구 봉천동 만나칼국수,11720015
76,6052,소문난맛함흥냉면,1,한식,서울특별시 무학봉16길 1 (하왕십리동),2299-5537       ,전풍호텔 건너편에서 홈플러스쪽으로 200m 정도 앞으로 오시면 됩니다.(왕금당 맞은편),영업시간 : 11:00~24:00  좌석수 : 16석 휴무일 : 없음 배달 : x 예약 : X 카드 : ○ 주차 : X              ,주인이 거래처를 통해 식자재 직접 조달 질좋은 고기사용,5,21-2,http://tearstop.seoul.go.kr/mulga/photo/20130805111921.jpg,37.56135742,127.0313727,성동구,하왕십리동,성동구 하왕십리동 소문난맛함흥냉면,-
77,6529,약속다방,4,기타외식업(다방패스트푸드등),서울특별시 종로구 종로 302 (창신동),764-1100   ,종로5가 버스정류장 앞,영업시간 : 오전 8시 ~ 오후 10시 좌석수 : 14테이블 휴무일 : 없음 카드 : 가능 배달:불가 예약:불가 주차:불가       ,평균가보다 10%이상 저렴함,5,21-2,http://tearstop.seoul.go.kr/mulga/photo/약속.jpg,37.57163329,127.0114007,종로구,창신동,종로구 창신동 약속다방,-
78,7847,홍보성,2,중식,서울특별시 송파구 문정로4길 24-20 (문정동),400-4532,전철노선:8호선 문정역 도보 3분 버스노선:5.301.461.3219.3422.3418.100.3011  문정1동 푸르지오 아파트 건너편 대우공업사 뒤쪽' ,영업시간:11:00 ~20:00 휴무일:매주일요일.공휴일 좌  석:4인테이블 30석 배  달:불가 주  차:불가, 예약 :가능 카드 :가능   ,5,21-2,http://tearstop.seoul.go.kr/mulga/photo/20120703114148.JPG,37.48406532,127.1251547,송파구,문정동,송파구 문정동 홍보성,18873016
79,7931,황궁,2,중식,서울특별시 구로구 경인로47길 10 (고척동),02-2681-4554,동양미래대학 먹자골목안 GS2층,영업시간 : 09:00~21:00 좌석수 : 50석 휴무일 : 명절 배달 : 가능 예약 : 가능 카드 : 가능 주차 : 불가 홈페이지 주소 : X 전자우편주소 : X ,신선한 재료 매일매일 배달 신속배달 3명 친절서비스 학생할인 제공함,5,21-2,http://tearstop.seoul.go.kr/mulga/photo/20120110174005.jpg,37.50016432,126.8671649,구로구,고척동,구로구 고척동 황궁,32496627
80,7533,중앙한분식,1,한식,서울특별시 구로구 구로동로 126-20 (구로동),02-851-1064,구로시장입구 100m직진 우측갈림길에서 1m길,영업시간 : 08:00~23:00 좌석수 : 24석 휴무일 : 명절 배달 : 가능(업소주변 100m이내) 예약 : 없음 카드 : 없음 주차 : 1~2대 가능 홈페이지 주소 : X 전자우편주소 : X,#NAME?,5,21-2,http://tearstop.seoul.go.kr/mulga/photo/20120119095059.jpg,37.49002321,126.8853862,구로구,구로동,구로구 구로동 중앙한분식,18480907
81,7939,소백산영주한우,1,한식,서울특별시 은평구 은평로 187-3 (녹번동),02-358-1199,은평구청 근처,영업시간 : 10시~22시 좌석수 : 48석 휴무일 : 13주 일요일(단예약있는 경우 영업함) 배달 : × 카드 : ○ 주차 :가능   ,농축산물 도매시장 이용,5,21-2,http://tearstop.seoul.go.kr/mulga/photo/20111229155617.jpg,37.60197419,126.9286224,은평구,녹번동,은평구 녹번동 소백산영주한우,18087264
82,8174,호남식당,1,한식,서울특별시 송파구 거마로22길 1 (마천동),3402-0885,버스노선 : 3214 3315 3316 3416  마천동 사거리 하차 송파 성모병원 인근 ,영업시간 : 오전10시~오후11시 좌석수 : 25석 휴무일 : 일요일 주차가능 배달 : 불가 예약 : 가능 카드 : 가능 주차 : 불가   ,정성들인 깔끔한 맛 청결 친절 서비스  물가상승 대비 2년간 가격동결,5,21-2,http://tearstop.seoul.go.kr/mulga/photo/20120703145242.JPG,37.49932743,127.1476654,송파구,마천동,송파구 마천동 호남식당,36004033
83,7601,대풍손칼국수,1,한식,서울특별시 성북구 보문로 129 (보문동2가),953-3060,보문동사거리 신한은행옆 신호등앞 1031421522722731621212보험연수원맞은편대풍보쌈해물칼국수,영업시간 :오전 11시30~오후10시30분 좌석수 : 100석 휴무일 : 연중무휴 배달 :예약배달 예약 :가능 카드 :가능 주차 : 가능(2대) 홈페이지 주소 : 전자우편주소 : ,우리업소는 매일 담근는 겉절이와 신선한 야채로 주변 직장인들과 가족단위 손님에게 맛과 정성 친절한 맘으로 모시도록 한결같이 노력하며 앞으로도 더욱더 청결친절저렴한 가격으로 손님을 모시겠습니다,5,21-2,http://tearstop.seoul.go.kr/mulga/photo/20120405155748.JPG,37.58645268,127.0184314,성북구,보문동,성북구 보문동 대풍손칼국수,-
84,7904,보리밥 솥뚜껑 삼겹살,1,한식,서울특별시 구로구 개봉로15길 12 (개봉동),02-2682-4662,개봉점 우리은행 뒤편 돼지네횟집 맞은편,영업시간 : 10:00~22:00 좌석수 : 44석 휴무일 : 없음 배달 : 없음 예약 : 가능 카드 : 가능 주차 : 2대 가능 홈페이지 주소 : X 전자우편주소 : X,청결과 친절한 서비스,5,21-2,http://tearstop.seoul.go.kr/mulga/photo/20111222075952.jpg,37.49002989,126.8552755,구로구,개봉동,구로구 개봉동 보리밥 솥뚜껑 삼겹살,20891518
85,8724,마들김밥,1,한식,서울특별시 노원구 한글비석로 474 (상계동) 보람상가,02-933-9308,,영업시간 : 10:00 ~ 20:30 좌석수 :80 휴무일 : 명절에 3일씩 예약가능여부: 가능 카드사용가능 배달 :불가 주차 :가능         , 다양한 메뉴의 음식들이 모두 너무나 착한가격으로 제공되지만 좋은재료와 정성스러운 손길로 준비하기에 맛과 정성이 감동적이다. 가족들이 참여하여 운영하면서 인건비에 대한 부담을 줄이면서 박리다매로서 운영을 해나간다는 신념으로 저렴한 가격으로 감동적인 서비스를 제공하는 음식점이다. ,5,21-2,http://tearstop.seoul.go.kr/mulga/photo/20170314160255.jpg,37.66482335,127.0654415,노원구,상계동,노원구 상계동 마들김밥,11383739
86,7348,와우돈까스,1,한식,서울특별시 중랑구 공릉로12가길 6 1층 (묵동),02-2209-3607,묵1동 도깨비시장 내 ,영업시간 :09:00^21:00 좌석수 :20 휴무일 :연중무휴 배달 :가능 카드 :가능 예약 : 가능 주차 :불가능 취급품목 : 돈까스 6000원 기타: 모든 메뉴 가격이 저렴하지만 맛이 좋음   ,메뉴가 다양하고 거의 모든 메뉴 가격이 4000원~5500원대로 착한가격 유지 ,5,21-2,http://tearstop.seoul.go.kr/mulga/photo/20100802170856.JPG,37.61634248,127.0801655,중랑구,묵동,중랑구 묵동 와우돈까스,1912613431
87,7937,털보고된이,1,한식,서울특별시 은평구 통일로83길 9-1 (갈현동),02-383-9289,청구성심병원 근처,영업시간 : 10:30 ~ 21:30 좌석수 : 46석 휴무일 : 13째주 일요일 배달 : X 예약 : ○ 카드 : ○ 주차 : ○     ,직장인 상대 저렴한 가격 가정식 백반,5,21-2,http://tearstop.seoul.go.kr/mulga/photo/20120119101858.JPG,37.62083655,126.9186993,은평구,갈현동,은평구 갈현동 털보고된이,11703044
88,7392,춘천식당,1,한식,서울특별시 서대문구 수색로 42,309-2208,남가좌동 본전부페 주변,영업시간 :8:00~22:00 좌석수 :20석 휴무일 :연중무휴 배달 :가능 예약 :가능 카드 :유 주차 :무 홈페이지 주소 : 전자우편주소 :    ,- 1년째 가격 동결(냉면) - 저렴한 가격 비결 : 종업원을 두지 않아 인건비 절감,5,21-2,http://tearstop.seoul.go.kr/mulga/photo/20211210143850.jpg,37.57044466,126.9142598,서대문구,남가좌동,서대문구 남가좌동 춘천식당,1525144224
89,8435,삼성돈구이,1,한식,서울특별시 강남구 봉은사로108길 3-6 (삼성동),02-508-6994,구한전빌딩 뒤편(봉은사역 5번 출구에서 도보 5분),영업시간 :11:00~22:00 좌석수 :60석 휴무일 :매주토일 배달 :불가능 예약 :가능 카드 :가능 주차 :1대가능 홈페이지 주소 :없음 전자우편주소 :없음          ,전주콩나물국밥 전문점으로 맛과 가격으로 승부함,5,21-2,http://tearstop.seoul.go.kr/mulga/photo/20161205120819.jpg,37.51439577,127.0641123,강남구,삼성동,강남구 삼성동 삼성돈구이,38571626
90,6304,왕세숫대야냉면,1,한식,서울특별시 서대문구 수색로2길 7 (남가좌동),376-0877        ,,영업시간 : 좌석수 : 휴무일 : 배달 : 예약 : 카드 : 주차 : 홈페이지 주소 : 전자우편주소 :  기타 :         ,- 친절하고 청결함 - 6개월째 가격 동결(냉면) - 저렴한 가격 비결 : 마진율을 낮춰서 박리다매 ,5,21-2,http://tearstop.seoul.go.kr/mulga/photo/20211210144618.jpg,37.56918523,126.915982,서대문구,남가좌동,서대문구 남가좌동 왕세숫대야냉면,36004338
91,6325,연안식당,1,한식,서울특별시 서대문구 증가로 258 (북가좌동),302-3773        ,,영업시간 : 좌석수 : 휴무일 : 배달 : 예약 : 카드 : 주차 : 홈페이지 주소 : 전자우편주소 :  기타 :      ,- 1년째 가격 동결 - 다양한 봉사활동 - 저렴한 가격 비결 : 식육점을 병행하며 오래된 장사 노하우로 좋은 재료를 저렴하게 구입,5,21-2,http://tearstop.seoul.go.kr/mulga/photo/20211210144203.jpg,37.58377618,126.9116437,서대문구,북가좌동,서대문구 북가좌동 연안식당,-
92,7971,함흥냉면(연백냉면),1,한식,서울특별시 송파구 새말로12길 7 (문정동),409-5054,전철노선:8호선 장지역 1번출구 버스노선:3011.3219.3417.3422.3319.301.401.402' ,영업시간 : 09:00~ 21:00 좌석수 :40석 휴무일 :매월 24주 일요일 배달 :불가 카드 :가능 ,육수및 양념장 직접만듦.  면은 고구만전분(함흥냉면가루)을 뜨거운 물로반죽하여 직접뽑음. 함흥냉면 경력20년.' 학생고객위주의 가격으로 대한민국 최저가 자부 ,4,21-2,http://tearstop.seoul.go.kr/mulga/photo/20120703113545.JPG,37.48267509,127.1293115,송파구,문정동,송파구 문정동 함흥냉면(연백냉면),-
93,8193,금천골 오리명가,1,한식,서울특별시 금천구 시흥대로78길 59 (독산동),808-1246,,영업시간 : 좌석수 : 휴무일 : 배달 : 예약 : 카드 : 주차 : 홈페이지 주소 : 전자우편주소 : 기타 :     ,2011.04월 개업이래 현재까지 가격을 인상하지 않고 있으며 친절하고 웃는 얼굴로 손님을 대하여 많은 단골손님이 있음,4,21-2,http://tearstop.seoul.go.kr/mulga/photo/20120703161714.jpg,37.46071404,126.8991736,금천구,독산동,금천구 독산동 금천골 오리명가,20289500
94,8565,홍콩반점,2,중식,서울특별시 양천구 곰달래로 9-1 (신월동),2605-1471,,null         ,겉모습 허름하나 친절하며 가격저렴하고 주방이 깨끗하게 정리되어있음,4,21-2,http://tearstop.seoul.go.kr/mulga/photo/20120710145133.jpg,37.52989602,126.8337497,양천구,신월동,양천구 신월동 홍콩반점,20937476
95,8548,소문장,2,중식,서울특별시 양천구 목동중앙북로4길 20 (목동),2644-3067,,할인 내용 (학생및 60세이상어르신 500원 할인) - 짜장면 : 3500원 →3000원 - 짬 뽕 : 4000원 → 3500원   ,친절하며 타업소에 비해 저렴함  노인분들에게 500원 더 할인함,4,21-2,http://tearstop.seoul.go.kr/mulga/photo/20120710160005.JPG,37.5478173,126.8642164,양천구,목동,양천구 목동 소문장,18421104
96,8541,밥도둑구이전문,1,한식,서울특별시 양천구 목동중앙북로7가길 53 (목동),2646-2131,,null  ,달아놓고 드시는 분들은 정가격보다 500원 할인해서 영업,4,21-2,http://tearstop.seoul.go.kr/mulga/photo/20120710142530.JPG,37.54966854,126.8648147,양천구,목동,양천구 목동 밥도둑구이전문,36004766
97,8109,시골칼국수,1,한식,서울특별시 강서구 방화대로7나길 45 (공항동),02-2666-5477,공항동 천주교회 근처,영업시간 : 10:00~21:00 좌석수 : 18개 휴무일 : 매주 일요일 배달 : 불가 예약 : 가능 카드 : 가능 주차 : 가능 홈페이지 주소 : 없음 전자우편주소 : 없음     ,가격이 저렴하고 음식이 푸짐하며 친절함. ,4,21-2,http://tearstop.seoul.go.kr/mulga/photo/20120621105621.JPG,37.55624077,126.8132605,강서구,공항동,강서구 공항동 시골칼국수,18368759
98,8553,콩아리(전주콩나물국밥),1,한식,서울특별시 강북구 월계로 43-1 (미아동),985-5588,버스정류장 창문여고사거리역에서 도보로 1분,영업시간 : 24시간 좌석수 : 76석 휴무일 : 없음 배달 : 불가 예약 : 이행 카드 : 가능 주차 : 가능   ,학생할인 : 콩나물국밥 3500원,4,21-2,http://tearstop.seoul.go.kr/mulga/photo/20130805151148.jpg,37.61154637,127.0344652,강북구,미아동,강북구 미아동 콩아리(전주콩나물국밥),1001001981
99,8543,대박집,1,한식,서울특별시 양천구 등촌로 46 (목동),2653-9285,,null  ,경기도에서 착한가게 장관상 수상 하였음. 업소 무척 넓고 깨끗함. 가격도 타 업소에 비해 월등히 저렴.,4,21-2,http://tearstop.seoul.go.kr/mulga/photo/20150107101343.jpg,37.53384214,126.8640329,양천구,목동,양천구 목동 대박집,36004038
100,8616,메밀이랑 면이랑,1,한식,서울특별시 강서구 강서로 263-17 (내발산동),02-2691-8585,송화시장 근처,영업시간 : 11:00~20:00 좌석수 : 26개 휴무일 : 매주 일요일 배달 : 불가 예약 : 불가 카드 : 가능  주차 : 불가 홈페이지 주소 : 없음 전자우편주소 : 없음   ,친절 및 업소 청결,4,21-2,http://tearstop.seoul.go.kr/mulga/photo/20130716105407.jpg,37.54925761,126.8352441,강서구,내발산동,강서구 내발산동 메밀이랑 면이랑,20815439
101,8652,선유일식,3,경양식일식,서울특별시 영등포구 영신로 17길3 (영등포본동),02-847-5888,영등포역 뒷편 80m,영업시간 : 10:30-22:30 좌석수 : 88석 휴무일 : 매주 일요일 배달 : 가능 예약 : 가능 카드 : 가능 주차 : 가능 홈페이지 주소 : 전자우편주소 :,모범음식점 지정업소. 청결하고 넓은 실내의 활어전문점 싱싱한 회~,4,21-2,http://tearstop.seoul.go.kr/mulga/photo/20130612150704.jpg,37.51418203,126.9076978,영등포구,영등포동,영등포구 영등포동 선유일식,-
102,8309,강원도청국장,1,한식,서울특별시 송파구 오금로19길 14 (방이동),423-1714,백제고분로쪽 방이시장 입구에서 오른쪽으로 두번째 골목에 위치하고 있음 구청앞에서 34143216 탑승. 방이 우체국에서 하차 ,영업시간 : 평일-11:30~14:30 17:30~20:30  토요일-11:30~14:30 좌석수 :  11개(테이블) 휴무일 : 매주 일요일  기타 : 주차가능      ,친절과 서비스에 단골고객 많음. 정성들인 깔끔한 맛. 높은 물가상승 대비 3년 가격 동결 업소,4,21-2,http://tearstop.seoul.go.kr/mulga/photo/20120704131313.JPG,37.51087848,127.113994,송파구,방이동,송파구 방이동 강원도청국장,20940667
103,8068,겨울나그네,3,경양식일식,서울특별시 광진구 능동로 147 (화양동),498-3650,건대입구 2번출구로 나와 길따라 1Km,영업시간 : 10:00 ~ 04:00 좌석수 : 휴무일 : 연중무휴 배달 : 예약 : 카드 : 주차 : 홈페이지 주소 : 전자우편주소 :     ,23년간 저렴한 가격으로 운영,4,21-2,http://tearstop.seoul.go.kr/mulga/photo/20120620163117.JPG,37.54395421,127.0722228,광진구,화양동,광진구 화양동 겨울나그네,18003461
104,8570,북경반점,2,중식,서울특별시 양천구 지양로13길 2 (신월동),2699-7788,,?      ,청결하고 친절함 60세 이상 어르신들에게 500원 할인,4,21-2,http://tearstop.seoul.go.kr/mulga/photo/20120710142640.jpg,37.52310898,126.8316622,양천구,신월동,양천구 신월동 북경반점,18435049
105,8542,조은식당,1,한식,서울특별시 양천구 목동동로 339 (목동 목동트윈빌),2655-2527,,영업시간 : 좌석수 : 휴무일 : 배달 : 예약 : 카드 : 주차 : 홈페이지 주소 : 전자우편주소 :   ,청결하고 친절함. ,4,21-2,http://tearstop.seoul.go.kr/mulga/photo/20120710160149.JPG,37.53217536,126.8767439,양천구,목동,양천구 목동 조은식당,1371932859
106,8080,김밥타운,1,한식,서울특별시 도봉구 도당로15길 3 (방학동),02-956-2001,방학역 3번출구에서 857,영업시간 : 09:00-21:00 좌석수 : 휴무일 : 배달 : 가능 예약 : 가능 카드 : 가능 주차 : 불가능 홈페이지 주소 : 전자우편주소 : 기타 :       ,재래시장(도깨비시장)주변에 위치한 소규모 점포로 운영 대표품목 음식인 김밥을 저렴한 가격에 제공.,3,21-2,http://tearstop.seoul.go.kr/mulga/photo/20120620140244.jpg,37.66576223,127.0368592,도봉구,방학동,도봉구 방학동 김밥타운,18625733
107,8459,오복냉면,1,한식,서울특별시 강남구 선릉로76길 21 (대치동),02-501-6288,대치한신휴플러스아파트 우측 대각선 50m 오가빌딩 1층,영업시간 :평일17:00~02:00주말17:00~24:00 좌석수 :30석 휴무일 :매주 일요일 배달 :불가능 예약 :가능 카드 :가능 주차 :2대 홈페이지 주소 : 전자우편주소 :           ,후하고 넉넉한 인심 주재료인 쌀을 직접 구매함,3,21-2,http://tearstop.seoul.go.kr/mulga/photo/20140430172449.jpg,37.50185209,127.0521767,강남구,대치동,강남구 대치동 오복냉면,-
108,8350,자매분식,1,한식,서울특별시 구로구 구로중앙로8길 41 (구로동),02-851-5293,대림역 2번 출구 방면 경남아너스빌 아파트 입구에 위치합니다.,영업시간 : 08:00~20:00 좌석수 : 20석 휴무일 : 매주 일요일 배달 : X 예약 : X 카드 : X 주차 : X 홈페이지 주소 : X 전자우편주소 : X ,가격이 저렴하고 친절함,3,21-2,http://tearstop.seoul.go.kr/mulga/photo/20120706151647.JPG,37.49289538,126.8938133,구로구,구로동,구로구 구로동 자매분식,36004166
109,8352,우동.짜장,2,중식,서울특별시 구로구 구로동로 126-16 (구로동),02-837-9705,기업은행 옆 골목 GO마트 후문 앞,영업시간 : 9:00~21:00  좌석수 : 7석 휴무일 : 첫째 셋째주 일요일 배달 : X 예약 : X 카드 : X 주차 : 가능 홈페이지 주소 : X 전자우편주소 : X ,저희 업소는 친절하며 깨끗한 환경에서 조리하고 셀프로 반찬을 가져다 먹는 시스템으로 재활용을 절대 하지않습니다.,3,21-2,http://tearstop.seoul.go.kr/mulga/photo/20120706151915.JPG,37.4900142,126.8851147,구로구,구로동,구로구 구로동 우동.짜장,36004921
110,7661,진국설렁탕,1,한식,서울특별시 영등포구 당산로46길 1 (당산동6가),02-2672-1666,2호선 당산역 6번 출구 앞 ,영업시간 : 24시간 좌석수 : 60석 휴무일 : ※일요일만 10:00부터 영업 배달 : 불가 예약 : 불가 카드 : 가능 주차 : 불가 홈페이지 주소 : 전자우편주소 : 기타 :주인이 식재료 구입 및 주방담당박리다매  ,#NAME?,3,21-2,http://tearstop.seoul.go.kr/mulga/photo/20121108165052.jpg,37.53406501,126.9026765,영등포구,당산동,영등포구 당산동 진국설렁탕,21331382
111,8121,미성식당,1,한식,서울특별시 서대문구 통일로40안길 13-5 (홍제동),02-379-8562,,영업시간 : 좌석수 : 휴무일 : 배달 : 예약 : 카드 : 주차 : 홈페이지 주소 : 전자우편주소 : 기타 :   ,재료를 직접 구입하고 종업원없이 직접 요리하여 인건비 절감 ,3,21-2,http://tearstop.seoul.go.kr/mulga/photo/20120621152455.JPG,37.59085131,126.9436836,서대문구,홍제동,서대문구 홍제동 미성식당,36004029
112,8851,할범탕수육,1,한식,서울특별시 양천구 목동중앙북로 15 (목동),2652-0883,목3동 시장에 위치,영업시간 : 좌석수 : 휴무일 : 배달 : 예약 : 카드 : 주차 : 홈페이지 주소 : 전자우편주소 : 기타 :   ,목3동 시장에 위치하여 접근성이 용이 다양한 메뉴에 매우 저렴한 가격으로 즐길 수 있음 친절하고 인심이 넉넉함,3,21-2,http://tearstop.seoul.go.kr/mulga/photo/20140917131511.jpg,37.54853228,126.8653563,양천구,목동,양천구 목동 할범탕수육,37746339
113,8678,국수회관,1,한식,서울특별시 관악구 신림로 277 (신림동) 우창빌딩,0507-1362-5663,신림역3번출구로 나와 10분 직진 서원동주민센터 맞은편,영업시간 :오전10시~오후10시 좌석수 :20 휴무일 :없음 배달 :불가능 예약 :가능 카드 :불가능 주차 :가능         ,많은 품목을 취급하지 않고 주력 품목만(칼국수 잔치국수냉면만두) 취급하여 저렴한 가격에 제공 '착하게 살자'는 좌우명 아래 착한 가격으로 제공원산지 표시가 잘되어 있음 관악구 평균가격보다 50% 저렴,3,21-2,http://tearstop.seoul.go.kr/mulga/photo/20220718135506.jpg,37.4792616,126.9310023,관악구,신림동,관악구 신림동 국수회관,33358979
114,8043,영화속의 김밥이야기,1,한식,서울특별시 광진구 자양로 173 (구의동),444-5005,광진경찰서에서 어린이대공원 방면으로 50M,영업시간 : 07:00 ~ 22:30 좌석수 : 휴무일 : 매주 일요일 배달 : 예약 : 카드 : 주차 : 홈페이지 주소 : 전자우편주소 :    ,본인 운영으로 인건비 최소화,3,21-2,http://tearstop.seoul.go.kr/mulga/photo/20120620161711.JPG,37.54327179,127.0841916,광진구,구의동,광진구 구의동 영화속의 김밥이야기,13156731
115,8005,은혜김밥,1,한식,서울특별시 은평구 역말로9길 41 (대조동),02-359-0262,동명여고 후문,영업시간 : 평일 06:30 ~ 20:00 / 주말 06:30 ~ 15:00 좌석수 : 12석 휴무일 : 무휴  카드 : × 주차 : × 배달 : ×    ,전통시장 이용 신선하고 저렴한 삭자료 구입,3,21-2,http://tearstop.seoul.go.kr/mulga/photo/20120614172258.JPG,37.61470707,126.9222223,은평구,대조동,은평구 대조동 은혜김밥,36004210
116,8575,용짜장,2,중식,서울특별시 성동구 아차산로7길 28 (성수동2가),02-3409-5679,,영업시간 : 9:00~21:00 좌석수 : 80석 휴무일 : 연중무휴 배달 :X 카드 : ○ 주차: X       ,배달을 안하고 저렴한 가격에 홀에서만 판매 저렴하고 친절로 모시며 가격안정에 앞장서 가격을 올리지 않을 계획,3,21-2,http://tearstop.seoul.go.kr/mulga/photo/,37.54754415,127.0553768,성동구,성수동,성동구 성수동 용짜장,18789350
117,8414,지리산,1,한식,서울특별시 강남구 학동로43길 7 지상1층 (논현동),02-546-3127,논현2동 주민센터에서 학동로 방면으로 도보1분,영업시간 :06:00~22:00 좌석수 :56석 휴무일 :연중무휴 배달 :불가능 예약 :가능 카드 :가능 주차 :불가능 홈페이지 주소 : 전자우편주소 :         ,신선한 재료만 사용하고 매장이 깨끗함 친절한 서비스,3,21-2,http://tearstop.seoul.go.kr/mulga/photo/20140501160313.jpg,37.51658323,127.0372078,강남구,논현동,강남구 논현동 지리산,36004008
118,8021,정릉갈비,1,한식,서울특별시 성북구 정릉로38길 8 (정릉동),916-9466,정릉로 대로변에서 신협골목안쪽에 위치,영업시간 : 11시30분 ~ 22시30분 좌석수 : 14개 휴무일 : 연중무휴 배달 : 무 예약 : 가능 카드 : 가능 주차 : 가능 홈페이지 주소 : 전자우편주소 : 기타 :  ,가격인상없이 저렴하게 판매하고 푸짐하고 친절하게 모시겠습니다.,3,21-2,http://tearstop.seoul.go.kr/mulga/photo/20120618140214.jpg,37.60188312,127.0186528,성북구,정릉동,성북구 정릉동 정릉갈비,18909876
119,8687,남영골,1,한식,서울특별시 용산구 한강대로77길 8 (갈월동),704-4745,남영역출구에서 오른쪽으로 약 10미터 이동후 횡단보도 건너 오른쪽으로 약 10미터 이동,영업시간 :10:00 ~ 07:00 좌석수 :120석 휴무일 :없음 배달 :불가 예약 :가능 카드 :가능 주차 :불가       ,일부품목 20%이상 저렴 깨끗하고 청결한 위생관리' ,3,21-2,http://tearstop.seoul.go.kr/mulga/photo/20130718174350.JPG,37.54219831,126.9721418,용산구,갈월동,용산구 갈월동 남영골,18128429
120,8686,한일각,2,중식,서울특별시 용산구 보광로 21-1 (보광동),796-2557,보광동주민센터옆 종점사거리에서 폴리텍대학 방향 40m,영업시간 :11:00 ~ 21:00 좌석수 : 50 휴무일 : 없음 배달 :가능(배달료 추가) 예약 :가능 카드 :가능 주차 :불가     ,자장면과 짬뽕이 20%이상 저렴하고 신선한 재료를 사용하는 업소임,3,21-2,http://tearstop.seoul.go.kr/mulga/photo/20150812112453.jpg,37.52639488,127.0005151,용산구,보광동,용산구 보광동 한일각,18194687
121,8730,토종집,1,한식,서울특별시 강북구 인수봉로19나길 32 (수유동 삼안빌라),981-3104,지하철 (수유)역 3번출구 -> 마을버스 3번 종점 (빨래골)역 하차 도보 (1)분 지하철 (미아)역 7번출구 -> 마을버스 10번 (수유경로당)역 하차 도보 (1)분,영업시간 : 10:00~22:00 좌석수 : 80석 휴무일 : 첫째주 월요일 배달 : 가능 예약 : 가능 카드 : 가능 주차 : 가능 홈페이지 주소 : 없음 전자우편주소 : 없음 기타 : 모범음식점 ,,3,21-2,http://tearstop.seoul.go.kr/mulga/photo/20130617104826.jpg,37.6271489,127.0107277,강북구,수유동,강북구 수유동 토종집,12844300
122,8453,제일식당,1,한식,서울특별시 강남구 남부순환로 2921 (대치동),02-568-9367,대치역 1번 출구250m 4분거리 남서울종합상가내 지하1층,영업시간 :11:00~21:00 좌석수 :16석 휴무일 :매주 일요일 배달 :불가능 예약 : 카드 :가능 주차 :가능 홈페이지 주소 : 전자우편주소 : 기타 :       ,대부분의 가격이 저렴하다. 넉넉한 인심으로 양을 많이 드린다.,3,21-2,http://tearstop.seoul.go.kr/mulga/photo/20140501101834.jpg,37.49349436,127.059773,강남구,대치동,강남구 대치동 제일식당,36003991
123,8410,영동원삼겹살,1,한식,서울특별시 강남구 강남대로 520 (논현동),02-541-5090,논현역 2번 출구에서 영동시장 방면으로 도보 6분,영업시간 :24시간영업 좌석수 :80석 휴무일 :없음 배달 :불가능 예약 :가능 카드 :가능 주차 :불가능 홈페이지 주소 :없음 전자우편주소 :없음        ,매장이 깨끗하며 무엇보다 고기가 맛있음. 저렴한가격,3,21-2,http://tearstop.seoul.go.kr/mulga/photo/20170404100920.jpg,37.50867738,127.023051,강남구,논현동,강남구 논현동 영동원삼겹살,18509106
124,8373,송백식당,1,한식,서울특별시 영등포구 당산로38길 15 (당산동4가),02-2632-5080,영등포구청 사거리 당산역 우측 방향 150m,영업시간 : 09:00-22:00 좌석수 : 48석 휴무일 : 일요일 및 공휴일 배달 : 불가 예약 : 가능 카드 : 가능 주차 : 불가 홈페이지 주소 : 전자우편주소 :  ,맛 동일 장소 고정영업으로 단골 확보.  착한가격 품목인 김치찌개 된장찌개 5000원 외 전체적으로 저렴한 가격 박리다매 영업. ,3,21-2,http://tearstop.seoul.go.kr/mulga/photo/20121030192406.jpg,37.52870047,126.9000029,영등포구,당산동,영등포구 당산동 송백식당,18603045
125,8312,김밥만두집,1,한식,서울특별시 구로구 오류로8나길 8 (오류동 미성아트빌라),02-2617-8550,오류동 경남아파트 앞 새마을금고 옆에 위치합니다.,영업시간 : 06:00~20:00 좌석수 : 12석 휴무일 : 매주 일요일 배달 : X 예약 : 가능 카드 : 가능 주차 : 가능 홈페이지 주소 : X 전자우편주소 : X,가격이 저렴하고 친절함,3,21-2,http://tearstop.seoul.go.kr/mulga/photo/20120706161257.JPG,37.49074036,126.8413258,구로구,오류동,구로구 오류동 김밥만두집,36004565
126,8460,두꺼비,1,한식,서울특별시 강남구 역삼로 421 (대치동),02-445-8742,도성초교차로에서 휘문고 방향으로 200m 3분거리(좌측),영업시간 :11:00~22:30 좌석수 :84석 휴무일 :명절 배달 :불가능 예약 :식사는 불가능 고기 가능 카드 :가능 주차 :가능 홈페이지 주소 : 전자우편주소 :         ,소를 통째로 구입 원가절감 모든 반찬에 조미료 미 사용,3,21-2,http://tearstop.seoul.go.kr/mulga/photo/20180329100141.jpg,37.5014665,127.0530851,강남구,대치동,강남구 대치동 두꺼비,13149894
127,8712,함흥식당,1,한식,서울특별시 서초구 마방로10길 54-2 (양재동),02-577-7900,3호선 양재역5번출구 마을버스(18번)삼호물산하차. 삼호물산뒤 먹자골목에 위치함.,영업시간 :12:00~22:30 좌석수 :46 휴무일 :구정.추석 배달 :불가 예약 :가능 카드 :가능 주차 :가능 홈페이지 주소 : 전자우편주소 : ,국내산 삽겹으로 고기가 싱싱하고 육질이 살아있으며 깔끔하고 신선한  식재료를 사용합니다.,3,21-2,http://tearstop.seoul.go.kr/mulga/photo/20130613113653.JPG,37.47536582,127.0448619,서초구,양재동,서초구 양재동 함흥식당,18269352
128,8289,해성반점,2,중식,서울특별시 구로구 고척로 123-2 (개봉동),02-2684-8991,한사랑 정형외과 옆에 위치합니다.,영업시간 : 10:00~21:00 좌석수 : 50석 휴무일 : 격주 화요일 배달 : 가능 예약 : 가능 카드 : 가능 주차 : X 홈페이지 주소 : X 전자우편주소 : X,넓은 홀 신선한 재료 및 청결을 우선시 함 홀에서 식사시 할인 혜택 있음.,3,21-2,http://tearstop.seoul.go.kr/mulga/photo/20120706154523.JPG,37.50230623,126.8479926,구로구,개봉동,구로구 개봉동 해성반점,18487863
129,8478,육판장,1,한식,서울특별시 강남구 삼성로 155 지상1층 122호(대치동),02-564-6254,대치역 7번 출구 대치퍼스트빌딩 1층,영업시간 :1100~21:00 좌석수 :40석 휴무일 :명절 배달 :불가능 예약 :가능 카드 :불가능 주차 :상가 주차장 이용 홈페이지 주소 : 전자우편주소 :      ,신선한 재료 사용 맛있는 먹거리 제공 학원가 학생들을 위해 저렴한 가격 유지,3,21-2,http://tearstop.seoul.go.kr/mulga/photo/20140430160630.jpg,37.4938814,127.0629519,강남구,대치동,강남구 대치동 육판장,19993872
130,7666,산고을,1,한식,서울특별시 영등포구 선유서로25길 5-1 (양평동2가),02-2632-0677,5호선 양평역 3분거리,영업시간 : 10:00-22:00 좌석수 : 28석 휴무일 : 매주 일요일 배달 : 불가 예약 : 가능 카드 : 가능 주차 : 가능 홈페이지 주소 : 전자우편주소 :  ,#NAME?,3,21-2,http://tearstop.seoul.go.kr/mulga/photo/20121108165703.jpg,37.52435552,126.8851816,영등포구,양평동,영등포구 양평동 산고을,18638571
131,8721,마시차이나,2,중식,서울특별시 노원구 동일로217길 58 (상계동),02-3392-1134,,영업시간 :10:30~21:00 좌석수 : 80석 휴무일 : 명절 3일씩 예약가능여부 :가능 카드사용가능 배달 :불가 주차 :불가       ,엄선된 좋은 재료를 사용하여 좋은 음식을 만들어서 착한가격으로 서비스하는 깔끔한 중화요리 업소임. 편안하고 깨끗한 인테리어로 모임을 하기에도 적당하며 온돌방도 있어서 편안한 모임의 장소로 이용가능. 신선하고 위생적인 재료관리가 돋보이고 상냥하고 친절한 사장부부의 서비스가 인상적임. ,3,21-2,http://tearstop.seoul.go.kr/mulga/photo/20170314160640.jpg,37.65326698,127.0579111,노원구,상계동,노원구 상계동 마시차이나,18648231
132,8675,김밥천국,1,한식,서울특별시 구로구 구로동로 119-2 (구로동),02-862-6625,남구로역 4번 출구에서 구로고대병원 사이 우리은행 맞은 편에 위치합니다. ,영업시간 : 24시간 좌석수 : 56석 휴무일 : 연중무휴(명절 당일 휴무) 배달 : X 예약 : 가능 카드 : 가능 주차 : X 홈페이지 주소 : X 전자우편주소 : X  ,가격이 저렴하고 업소가 청결하며 김밥 및 몇 개 메뉴는 현금시 500원 할인(예:김밥1000원국수김치찌개된장찌개순두부찌개돈가스비빔밥)지역 봉사활동도 활발히 하고 있음(체인 아님) ,3,21-2,http://tearstop.seoul.go.kr/mulga/photo/,37.48929795,126.8841435,구로구,구로동,구로구 구로동 김밥천국,20709913
133,8091,일심해장국,1,한식,서울특별시 도봉구 방학로 204 (방학동),02-956-7027,,영업시간 : 24시간 좌석수 : 휴무일 : 배달 : 불가능 예약 : 가능 카드 : 가능 주차 : 가능 홈페이지 주소 : 전자우편주소 : 기타 :    ,서민들이 즐겨하는 음식이 주메뉴로 하는 24시간 운영 업소로서 단골과 인지도로 찾아오는 업소. 고정적 재료의 공급이 원활 또한 셀프서비스로 종업원수를 줄여 인건비를 절약하며 박리다매의 운영 방식,3,21-2,http://tearstop.seoul.go.kr/mulga/photo/20120620143827.jpg,37.66220886,127.0294607,도봉구,방학동,도봉구 방학동 일심해장국,17964426
134,8090,알뜰정육식당,1,한식,서울특별시 도봉구 도봉로169나길 71 (도봉동),02-3491-6898,도봉역 2번출구 267m,영업시간 : 좌석수 : 휴무일 : 배달 : 불가능 예약 : 가능 카드 : 가능 주차 : 불가능 홈페이지 주소 : 전자우편주소 : 기타 :        ,도봉구 방학동 다세대주택 밀집주거지역에 위치한 정육점으로 식당을 추가로 영업하며 지역주민에게 축산물과 음식을 제공,3,21-2,http://tearstop.seoul.go.kr/mulga/photo/20120620143551.jpg,37.67642559,127.0437226,도봉구,도봉동,도봉구 도봉동 알뜰정육식당,36004745
135,8389,오케이식당,1,한식,서울특별시 동대문구 장한로18길 36 (장안동),2213-3671,현대홈타운2차(아) 앞,영업시간 : 7시~20시30분 좌석수 : 6석 휴무일 : 매주 일요일 배달 : 가능 예약 : 가능 카드 : 주차 : 2~3대정도 홈페이지 주소 : 전자우편주소 :    ,매일 장을 보며 제철음식을 제공하고 직접조리함 인근직장인이 많이 애용하고 있음,3,21-2,http://tearstop.seoul.go.kr/mulga/photo/20130820141101.jpg,37.56752647,127.0710217,동대문구,장안동,동대문구 장안동 오케이식당,1799319479
136,8661,우성숯불갈비,1,한식,서울특별시 송파구 백제고분로17길 56 (잠실동),416-9600,전철노선 : 2호선 신천역 3번출구에서 동민치과 방면 도보 3분 버스노선 : 431934113414362241532173413604318301신천역앞정류장 하차 도보 3분,영업시간 :11:00~23:00 좌석수 :테이블(19)76석 예약 :가능 카드 :가능 주차 :가능     ,친절서비스 옥외가격표시 원산지표시 이행,3,21-2,http://tearstop.seoul.go.kr/mulga/photo/20130612100449.JPG,37.51045418,127.0852781,송파구,잠실동,송파구 잠실동 우성숯불갈비,13158971
137,7967,화로가,1,한식,서울특별시 용산구 한강대로39길 5 (한강로2가),798-8480,신용산역 4호선(6번 출구) 60m,영업시간 : 11:00~22:30 좌석수 : 56석 휴무일 : 매주 일요일 카드 : 가능 배달 : 불가 예약 : 가능 주차 : 불가    ,당일 조리된 매일 다른 반찬이 나오며 타 업소에 비해 저렴한 가격에 공급하는 업소임 ,3,21-2,http://tearstop.seoul.go.kr/mulga/photo/20120406135159.JPG,37.53053018,126.9685964,용산구,한강로2가,용산구 한강로2가 화로가,18156909
138,8086,미락칼국수,1,한식,서울특별시 도봉구 도봉로110아길 6 (창동),02-908-7017,쌍문역 2번출구 470m,영업시간 : 11:00-20:00 좌석수 : 휴무일 : 배달 : 가능 예약 : 가능 카드 : 가능 주차 : 불가능 홈페이지 주소 : 전자우편주소 : 기타 :    ,대부분 주변의 공장에서 월 단위로 계산을 하며 많이 이용하는데 이 사람들은 모든가격이 4000원으로 이용한다고 함,3,21-2,http://tearstop.seoul.go.kr/mulga/photo/20120620142349.jpg,37.64595379,127.0373851,도봉구,창동,도봉구 창동 미락칼국수,36004536
139,8417,해남식당,1,한식,서울특별시 강남구 학동로101길 26 청담삼익상가 지하1층 4호(청담동),02-543-9660,청담역 14번 출구에서 청담삼익아파트 상가건물 지하 도보3분,영업시간 :09:00~17:00 좌석수 :48석 휴무일 :매주일요일 배달 :불가능 예약 :가능 카드 :가능 주차 :가능(30분무류) 홈페이지 주소 :없음 전자우편주소 :없음          ,가정식으로 어머니의 손맛을 느낄수 있음,3,21-2,http://tearstop.seoul.go.kr/mulga/photo/20140501135806.jpg,37.5224448,127.0576204,강남구,청담동,강남구 청담동 해남식당,36004007
140,8508,장독묵은지,1,한식,서울특별시 강남구 삼성로 38 (개포동),02-445-1444,개포동역 6번 출구 개포빌딩 1층,영업시간 :11:00~24:00 좌석수 : 휴무일 : 배달 :불가능 예약 : 카드 : 주차 :가능 홈페이지 주소 : 전자우편주소 :        ,시골에서 농사지은 재료로 맛깔나고 정성스럽게 손님에게 제공,3,21-2,http://tearstop.seoul.go.kr/mulga/photo/20140429164234.jpg,37.48868793,127.0668453,강남구,개포동,강남구 개포동 장독묵은지,18419672
141,8123,옛고향,1,한식,서울특별시 서대문구 모래내로 350 (홍은동),02-394-7681,,영업시간 : 좌석수 : 휴무일 : 배달 : 예약 : 카드 : 주차 : 홈페이지 주소 : 전자우편주소 : ,대표자 및 종업원 모두 친절하고 서비스가 좋으며 청결에 신경씀 한곳에서 오랜기간 장사하여 단골 확보로 저렴하게 제공 ,3,21-2,http://tearstop.seoul.go.kr/mulga/photo/20120621153257.jpg,37.58099575,126.9353259,서대문구,홍은동,서대문구 홍은동 옛고향,18755116
142,8274,해물칼국수,4,기타외식업(다방패스트푸드등),서울특별시 구로구 고척로 179 (고척동),02-2614-3609,고척근린공원 근처에 위치합니다.,영업시간 : 10:30~21:00 좌석수 : 40석 휴무일 : 매월 첫째 셋째 일요일 배달 : X 예약 : 가능 카드 : 가능 주차 : 근처 공원 유료주차장 홈페이지 주소 : X 전자우편주소 : X  ,직접 농사 지은 콩 팥을 사용하여 가격이 저렴하고 믿을 수 있음,3,21-2,http://tearstop.seoul.go.kr/mulga/photo/20120706153913.JPG,37.50427799,126.8533403,구로구,고척동,구로구 고척동 해물칼국수,18967211
143,8314,명가분식,1,한식,서울특별시 구로구 오류로8길 85 (오류동),02-2682-0384,오류역 2번 출구에서 50m 거리입니다.,영업시간 : 9:00~21:00 좌석수 : 18석 휴무일 : 매주 일요일 배달 : 오류2동 지역 가능 예약 : X 카드 : 가능 주차 : X 홈페이지 주소 : X 전자우편주소 : X,찌개와 반찬이 맛있습니다. (가정식백반 전문),3,21-2,http://tearstop.seoul.go.kr/mulga/photo/20120706161456.JPG,37.49313252,126.8447073,구로구,오류동,구로구 오류동 명가분식,35272523
144,8621,마포숯불갈비,1,한식,서울특별시 송파구 성내천로 223 (마천동),430-9757,전철노선 : 5호선 마천역 2번출구에서 마천중앙시장 방면 도보 10분 버스노선 : 33143317(마천2동 주민센터정류장 하차)도보 10분                321433153318(마천동 우방아파트정류장 하차)도보 1분,영업시간 :AM 10:30~PM 22:30 좌석수 : 좌식테이블 20개 휴무일 : 연중무휴 예   약 : 가능 카   드 : 가능 주   차 : 가능    ,경로우대(경로당 2곳 점심식사 5000원 균일가및 술음료 무료대접/10년째) ,3,21-2,http://tearstop.seoul.go.kr/mulga/photo/20140724101335.jpg,37.49976235,127.1525585,송파구,마천동,송파구 마천동 마포숯불갈비,36004764
145,8469,미러칼국수,1,한식,서울특별시 강남구 삼성로 212 지하층 32호(대치동 은마아파트),02-501-8748,대치역 3번 출구 은마아파트상가내 지하 1층,영업시간 : 11:00~20:00 좌석수 : 30 휴무일 : 일요일 배달 : 불가능 예약 : 불가능 카드 : 가능 주차 : 가능 홈페이지 주소 : 전자우편주소 :       ,좋은 재료를 사용하여 집에서 먹는 맛을 추구합니다.,3,21-2,http://tearstop.seoul.go.kr/mulga/photo/20140424133307.jpg,37.49961577,127.0659154,강남구,대치동,강남구 대치동 미러칼국수,33879310
146,8644,정원고기마을,1,한식,서울특별시 영등포구 가마산로 455 (신길동) 2층,02-836-8878,신길3?5동 새마을금고 인근,영업시간 : 11:00-22:00 좌석수 : 100석 휴무일 : 매월 첫째 일요일 배달 : 가능 예약 : 가능 카드 : 가능 주차 : 가능 홈페이지 주소 : 전자우편주소 : ,맛깔스러운 식재료와 친절 및 봉사,3,21-2,http://tearstop.seoul.go.kr/mulga/photo/20130611130500.gif,37.50600708,126.9069374,영등포구,신길동,영등포구 신길동 정원고기마을,-
147,8209,다정이모네,1,한식,서울특별시 관악구 신원로 3 (신림동),865-0218,난곡사거리에서 신림역 방향으로 400m 지점에 위치,영업시간 : 오전 10시 ~ 오후 10시 배달 : 불가능 주차 : 가능(5대) 휴무 : 매주 일요일(오후엔 영업)  좌석 : 20석 카드 : 가능 예약 : 가능       ,▷가족경영으로 인건비 절약. ▷2011년부터 가격 동결,3,21-2,http://tearstop.seoul.go.kr/mulga/photo/20120703171305.jpg,37.47965092,126.9278179,관악구,신림동,관악구 신림동 다정이모네,-
148,8175,유성짬뽕,2,중식,서울특별시 송파구 거마로22길 35 (마천동),443-6692,마천역 2번 출구 10분거리 버스노선 : 3414 3214 3315 3316 3416 마천사거리 하차 ,영업시간 : AM 10:30 ~ PM 9:00 좌석수 : 30석  휴무일 : 첫째 셋째 수요일  배달:가능 예약:가능 카드:가능 주차:불가     ,신선한 재료와 모든 야채는 가게에서 직접 준비함 물가상승대비 가격 동결 청결 친절 서비스,3,21-2,http://tearstop.seoul.go.kr/mulga/photo/20120703145618.JPG,37.4975461,127.1507651,송파구,마천동,송파구 마천동 유성짬뽕,-
149,8451,청실식당,1,한식,서울특별시 강남구 남부순환로 2917 (대치동),02-568-3692,대치역 1번 출구 230m 3분거리 청실종합상가 지하 1층,영업시간 :06:30~22:30 좌석수 :40석 휴무일 :1.3주 일요일 배달 :불가능 예약 :가능 카드 :가능 주차 :상가가능 홈페이지 주소 : 전자우편주소 :    ,맛있고 저렴하다 가족이 운영 인건비 절감으로 저렴하고 맛잇게 제공,3,21-2,http://tearstop.seoul.go.kr/mulga/photo/20140501171840.jpg,37.4931667,127.0591649,강남구,대치동,강남구 대치동 청실식당,36003989
150,8485,바우골화로구이,1,한식,서울특별시 강남구 강남대로92길 29 (역삼동),20-568-6721,강남역1번출구60m직진,영업시간 : 10:00~06:00 좌석수 :32석 휴무일 :없음 배달 :불가능 예약 :가능 카드 :가능 주차 :불가능 홈페이지 주소 : 전자우편주소 :          ,현지에서 재료를 제철에 다량으로 구입해서 저장고에 보관함 국내산삼겹살 취급,3,21-2,http://tearstop.seoul.go.kr/mulga/photo/20191022130419.jpg,37.4994031,127.0297084,강남구,역삼동,강남구 역삼동 바우골화로구이,12986974
151,8104,대승식당,1,한식,서울특별시 강서구 강서로74길 40 (가양동),02-2658-5646,호서예술전문학교 근처,영업시간 : 09:00~20:00 좌석수 : 48개 휴무일 : 매주 일요일 배달 : 가능 예약 : 가능 카드 : 가능 주차 : 불가 홈페이지 주소 : 없음 전자우편주소 : 없음   ,성인 청소년 식사 시 공기밥 추가 제공으로 오래된 단골 손님이 많음,3,21-2,http://tearstop.seoul.go.kr/mulga/photo/20120621104236.JPG,37.56683583,126.8430863,강서구,가양동,강서구 가양동 대승식당,-
152,8558,맛고을갈비찜,1,한식,서울특별시 동대문구 경동시장로10길 57 (제기동),960-1717,청량리 현대코아 골목,영업시간 :10:00~24:00 좌석수 : 6테이블(24석) 휴무일 : 주일 10:00~16:00 배달 :무 예약 : 가능 카드 : 주차 : 홈페이지 주소 : 전자우편주소 :   ,저렴하고 친절하고 양을 많게 대중들에게 다가가고 있습니다. 많은 사람들이 칭찬하고 있음. 양이 많아 1인분 시켜도 2인이 먹을 수 있을 정도임.,3,21-2,http://tearstop.seoul.go.kr/mulga/photo/20130820145356.jpg,37.58142822,127.043916,동대문구,제기동,동대문구 제기동 맛고을갈비찜,36004746
153,8264,삼삼치킨,4,기타외식업(다방패스트푸드등),서울특별시 구로구 경인로47길 42 (고척동),02-2692-9510,고척교 지나 동양미래대학교 근처에 위치합니다.,영업시간 : 16:00~04:00 좌석수 : 100석 휴무일 : 연중 무휴 배달 : X 예약 : 가능 카드 : 가능 주차 : X 홈페이지 주소 : X 전자우편주소 : X ,가격이 저렴하고 친절함,3,21-2,http://tearstop.seoul.go.kr/mulga/photo/20120706153510.JPG,37.50114507,126.8659703,구로구,고척동,구로구 고척동 삼삼치킨,36004226
154,7681,다솜한식전문,1,한식,서울특별시 영등포구 가마산로 338 (대림동),02-845-3212,대림3동 사거리 구로구청방향 좌측 50m,영업시간 : 12:00-22:00 좌석수 : 66석 휴무일 : 휴무없음 배달 : 불가 예약 : 가능 카드 : 가능 주차 : 가능 홈페이지 주소 : 전자우편주소 : 기타 :가격동결로 물가안정에 동참  ,맛있는 손맛으로 단골고객 다수 확보.  청결하고 친절한 서비스,3,21-2,http://tearstop.seoul.go.kr/mulga/photo/20121108171453.jpg,37.49923507,126.8970027,영등포구,대림동,영등포구 대림동 다솜한식전문,19836305
155,8571,조아루,2,중식,서울특별시 중구 퇴계로 114-2 (회현동3가),02-779-7897,지하철4호선 명동역 4번 출구 근처(맥도날드 옆) ,(2022년 7월 기준) ○ 영업시간 : 07:00~22:00 (휴무일 : 없음) ○ 좌석수 : 30석 ○ 배달 : 가능(전화주문 또는 배달의 민족/요기요 이용 시)  ○ 주차 : 불가 ○ 기타: 예약 가능 카드 가능           ,명동에 오시면 들러보세요.  가격이 저렴하고 음식이 맛있는 중국집이에요!,3,21-2,http://tearstop.seoul.go.kr/mulga/photo/20220502163423.png,37.56055048,126.9844201,중구,회현동,중구 회현동 조아루,20915644
156,8681,흑돈연가,1,한식,서울특별시 용산구 한강대로76길 11-2 (남영동),797-8060,남영역출구에서 오른쪽으로 약 100미터 이동후 직진방향으로 횡단보도 건너 오른쪽으로 약 50미터 이동 후 첫번째 골목으로 약 50미터 이동,영업시간 : 10:00 ~ 22:00 좌석수 :64석 휴무일 :매주일요일 배달 : 가까운지역 가능 예약 :가능 카드 : 가능 주차 : 가능      ,모범업소로서 깨끗하고 청결한 위생관리  사장님과 종업원 매우친절' ,3,21-2,http://tearstop.seoul.go.kr/mulga/photo/20130718174547.JPG,37.54170938,126.9739424,용산구,남영동,용산구 남영동 흑돈연가,32786158
157,8449,향나무집,1,한식,서울특별시 강남구 봉은사로111길 7 지상1층 (삼성동),02-511-3061,삼성동(봉은사역 4번 출구) 국순당 건물 뒤편 도보 1분,영업시간 :08:00~22:00 좌석수 : 휴무일 : 배달 :불가능 예약 : 카드 : 주차 :불가능 홈페이지 주소 : 전자우편주소 :        ,7년전 가격 그대로 주인이 직접 조리를 하여 청결유지,3,21-2,http://tearstop.seoul.go.kr/mulga/photo/20140501132245.jpg,37.51576074,127.0651908,강남구,삼성동,강남구 삼성동 향나무집,36004430
158,8462,해피타임,1,한식,서울특별시 강남구 삼성로71길 34 (대치동),02-567-5714,영동농협 풍림아이원아파트(23255)정류장 하차 후 좌측골목 70m,영업시간 :09:00~21:00 좌석수 :20석 휴무일 :명절 배달 :불가능 예약 :가능 카드 :가능 주차 :4대 홈페이지 주소 : 전자우편주소 :      ,사장이 직접 요리하여 인건비를 절감 김밥크기가 다른업소의 2배,3,21-2,http://tearstop.seoul.go.kr/mulga/photo/20140430171443.jpg,37.50163638,127.0561198,강남구,대치동,강남구 대치동 해피타임,36004000
159,8294,옛날짜장(중화각),2,중식,서울특별시 구로구 고척로22길 58 (개봉동),02-2618-3039,오류IC 근처 큰 굴다리 앞에 위치합니다.,영업시간 : 09:00~21:00 좌석수 : 8석 휴무일 : 매주 일요일 배달 : X 예약 : 가능 카드 : 가능 주차 : X 홈페이지 주소 : X 전자우편주소 : X,신선한 야채로 맛이 맛깔스러움,3,21-2,http://tearstop.seoul.go.kr/mulga/photo/20120706155809.JPG,37.4989477,126.8473611,구로구,개봉동,구로구 개봉동 옛날짜장(중화각),-
160,8685,청운숯불갈비,1,한식,서울특별시 용산구 청파로 383-8 (서계동),711-2625,소화아동병원에서 중구쪽으로 약 10미터 이동후 왼쪽골목으로 약 30미터 이동,영업시간 :10:00 ~ 22:00 좌석수 : 150석 휴무일 :없음 배달 :불가 예약 :가능 카드 :가능 주차 :가능(2대정도)     ,모범업소로서 깨끗하고 청결한 위생관리 ,3,21-2,http://tearstop.seoul.go.kr/mulga/photo/20130718174359.JPG,37.55415625,126.9684844,용산구,서계동,용산구 서계동 청운숯불갈비,-
161,8967,정하람남도팥칼국수,1,한식,서울특별시 송파구 삼전로 90 (삼전동),415-2334,,null ,,3,21-2,http://tearstop.seoul.go.kr/mulga/photo/20151202135142.JPG,37.50631653,127.0900953,송파구,삼전동,송파구 삼전동 정하람남도팥칼국수,-
162,8446,시골청국장,1,한식,서울특별시 강남구 학동로 504 (삼성동) 서울빌딩 101호,02-548-0171,청담역 6번 출구에서 경기고 방면으로 도보1분,영업시간 :11:00~21:00 좌석수 : 휴무일 : 배달 :불가능 예약 : 카드 : 주차 :가능 홈페이지 주소 : 전자우편주소 :        ,메뉴가 다양하고 가격이 저렴하다,3,21-2,http://tearstop.seoul.go.kr/mulga/photo/20170404100655.jpg,37.51871507,127.0510181,강남구,삼성동,강남구 삼성동 시골청국장,18564650
163,8324,명품삼겹살점문점,1,한식,서울특별시 송파구 백제고분로32길 3 (삼전동),419-2550,버스 : 3315331434183016900 송파구민 회관 밑 삼전 우체국 골목 전철 : 8호선 석촌역 7번출구 290m 삼정동 우체국,영업시간 : 11:00~23:00 기타 : 주차가능  ,명품삼결살에 저렴한 가격과 최상의 서비스를 제공합니다. ,3,21-2,http://tearstop.seoul.go.kr/mulga/photo/20120704134812.JPG,37.50202952,127.0952918,송파구,삼전동,송파구 삼전동 명품삼겹살점문점,-
164,8458,보리수,1,한식,서울특별시 강남구 삼성로82길 25 (대치동),02-564-7419,댜명중학교에서 도보 1분,영업시간 : 11:00~21:00 좌석수 : 50석 휴무일 : 일요일 배달 : 불가능 예약 : 가능 카드 : 가능 주차 : 불가능 홈페이지 주소 : 전자우편주소 : 기타 :        ,병어조림이 강남에서 가장 맛있는 집,3,21-2,http://tearstop.seoul.go.kr/mulga/photo/20140430180142.jpg,37.50557677,127.0597434,강남구,대치동,강남구 대치동 보리수,18466450
165,8305,서울분식,1,한식,서울특별시 송파구 가락로42길 13 (방이동),415-1576,구청 앞 3414 3216을 타고 방이초등학교에서 내림 황제 짜장 입구 ,영업시간 : 06:00 ~ 21:00  좌석수 : 9개(테이블) 휴무일 : 매주 일요일     ,철저한 위생관리. 친절서비스 물가상승 대비 3년 가격 동결 ,3,21-2,http://tearstop.seoul.go.kr/mulga/photo/20120704130330.JPG,37.51220786,127.1212013,송파구,방이동,송파구 방이동 서울분식,18531515
166,8057,한분식,1,한식,서울특별시 서대문구 홍연2길 2 (연희동),335-6712,,영업시간 : 좌석수 : 휴무일 : 배달 : 예약 : 카드 : 주차 : 홈페이지 주소 : 전자우편주소 :   ,직접 운영하여 인건비 절감 한곳에서 12년동안 운영하여 단골 확보로 지역주민과의 교류가 많음 경로우대 ,3,21-2,http://tearstop.seoul.go.kr/mulga/photo/20211210144908.jpg,37.57481109,126.9277682,서대문구,연희동,서대문구 연희동 한분식,1482656615
167,8680,풍년숯불갈비,1,한식,서울특별시 용산구 새창로 130 (원효로2가),719-6530,효창공원역 3번 4번 출구 사이 도로로 약 300미터 이동후 용문시장 사거리에서 왼쪽으로 약 300미터 이동후 오른쪽편,영업시간 : 10:00 ~ 22:00 좌석수 :100석 휴무일 :없음 배달 : 불가 예약 :가능 카드 : 가능 주차 : 불가        ,모범업소로서 깨끗하고 청결한 위생관리  항상신선한 재료사용하고 가격저렴한 품목이 많음 ,3,21-2,http://tearstop.seoul.go.kr/mulga/photo/20130708102131.jpg,37.53594341,126.9610888,용산구,원효로2가,용산구 원효로2가 풍년숯불갈비,1499646560
168,8467,대치동영지,1,한식,서울특별시 강남구 삼성로 212 지상1층(대치동 은마아파트),02-565-1114,대치역 3번 출구 은마아파트 상가내 1층,영업시간 : 09:00~20:00 좌석수 : 휴무일 : 배달 : 상가만 가능 예약 : 가능 카드 : 가능 주차 : 가능 홈페이지 주소 : 전자우편주소 :         ,직거래를 통한 원가 절감,3,21-2,http://tearstop.seoul.go.kr/mulga/photo/20170404100417.jpg,37.49961577,127.0659154,강남구,대치동,강남구 대치동 대치동영지,36003998
169,8127,영화반점,2,중식,서울특별시 서대문구 북아현로2길 5 (북아현동),02-362-0567,,영업시간 : 좌석수 : 휴무일 : 배달 : 예약 : 카드 : 주차 : 홈페이지 주소 : 전자우편주소 :  ,종업원을 두지 않고 직접 운영하여 인건비를 절감하고 신선한 재료를 저렴한 가격으로 직접 구매하여 평균가보다 낮은 금액으로 박리다매 ,3,21-2,http://tearstop.seoul.go.kr/mulga/photo/20211210144713.jpg,37.55864708,126.9567623,서대문구,북아현동,서대문구 북아현동 영화반점,19387351
170,8647,미각,1,한식,서울특별시 영등포구 가마산로90길 4 (신길동),02-822-5822,대방초등학교 인근,영업시간 : 10:00-22:30 좌석수 : 32석 휴무일 : 명절만 휴무 배달 : 불가 예약 : 가능 카드 : 가능 주차 : 가능 홈페이지 주소 : 전자우편주소 :  ,맛깔스러움과 정성스런 음식 사장님이 매일 아침 직접 전통시장에서 신선한 재료 구매 ,3,21-2,http://tearstop.seoul.go.kr/mulga/photo/20130612153428.jpg,37.50381569,126.9209631,영등포구,신길동,영등포구 신길동 미각,36004041
171,7780,한성축산식당,1,한식,서울특별시 마포구 연남로 33 (연남동),375-8447, 연남동 코오롱아파트 104동 건너편,영업시간 : 좌 석 수  : 휴 무 일  : 배     달  : 예     약  :  가능 카     드  : 주     차  :      , 넓은 공간에 설렁탕은 국산을 사용하여 판매하며 도로가로 접근성이 좋음. 육우와 암돼지를 취급하며 사장님이 정육점과 함께하여 다른 곳에 비해 저렴한 가격에 고기를 즐기실 수 있습니다.,3,21-2,http://tearstop.seoul.go.kr/mulga/photo/20110829170454.jpg,37.56254921,126.9214742,마포구,연남동,마포구 연남동 한성축산식당,36004752
172,8415,청계산갈비살,1,한식,서울특별시 강남구 학동로45길 7 지하1층 (논현동),02-543-2198,논현2동 주민센터에서 강남구청역 방면으로 도보1분,영업시간 :11:30~24:00 17:00~23:00(주말) 좌석수 :112석 휴무일 :명절 배달 :불가능 예약 :가능 카드 :가능 주차 :5대 홈페이지 주소 : 전자우편주소 :                  ,가격이 저렴하며 신선한 재료를 사용함 국내산 좋은 돼지갈비를 사용하면서 저렴하게 제공 매일 한가지 메뉴를 오늘의 메뉴로 정해 5500원에 제공,3,21-2,http://tearstop.seoul.go.kr/mulga/photo/20170404100842.jpg,37.51676351,127.0378128,강남구,논현동,강남구 논현동 청계산갈비살,18509142
173,7623,황금성,2,중식,서울특별시 서대문구 홍연길 91 (연희동),322-6005,,영업시간 : 좌석수 : 휴무일 : 배달 : 예약 : 카드 : 주차 : 홈페이지 주소 : 전자우편주소 :  ,- 친절하고 청결함 - 1년 이내 가격 인하(자장면 4500원 → 3500원 짬뽕 5000원 → 4000원) - 경로우대 할인 - 저렴한 가격 비결 : 홀에서 식사시 저렴 마진율을 낮춰서 저렴,3,21-2,http://tearstop.seoul.go.kr/mulga/photo/20110817134259.jpg,37.57696774,126.9314454,서대문구,연희동,서대문구 연희동 황금성,18750721
174,8052,광나루찌개,1,한식,서울특별시 종로구 대학로5가길 1 (연건동),744-9260,혜화역 4호선 3번 출구로 나와서 광나루찌개까지 약 467m 걷기 ,영업시간 : 오전 7시 ~ 오후 10시까지  휴무일 :일요일 배달 :불가 예약 :가능 카드 :가능 주차 :불가   ,찌개를 전문적으로 하는 업소임. 여러가지 찌개를 저렴한 가격에 맛볼 수 있음 ,3,21-2,http://tearstop.seoul.go.kr/mulga/photo/20120619135458.jpg,37.57835417,127.001738,종로구,연건동,종로구 연건동 광나루찌개,18676058
175,8072,한아름분식,1,한식,서울특별시 광진구 군자로 159 (군자동),469-2535,군자동 주민센터 인근 50m,영업시간 : 09:00 ~ 22:00 좌석수 : 휴무일 : 24째 일요일 배달 : 예약 : 카드 : 주차 : 홈페이지 주소 : 전자우편주소 :   ,부부가 운영하여 인건비 절약,3,21-2,http://tearstop.seoul.go.kr/mulga/photo/20120620163221.JPG,37.55528157,127.0766351,광진구,군자동,광진구 군자동 한아름분식,18837935
176,8267,우리식당,1,한식,서울특별시 구로구 중앙로3길 50 지하 (고척동),02-2612-5559,고척산업용품상가 지하에 위치하고 있습니다.,영업시간 : 08:00~20:00 좌석수 : 20석 휴무일 : 연중무휴 배달 : X 예약 : 가능 카드 : 가능 주차 : 가능 홈페이지 주소 : X 전자우편주소 : X ,가격이 저렴하고 친절함,3,21-2,http://tearstop.seoul.go.kr/mulga/photo/20120706153616.JPG,37.4999557,126.8603317,구로구,고척동,구로구 고척동 우리식당,1161905008
177,8532,찌개와,1,한식,서울특별시 강남구 광평로 280 (수서동),02-3413-0709,수서역 4번 출구 로즈데일빌딩 지하 2층,영업시간 :09:00~22:00 좌석수 : 휴무일 : 배달 :불가능 예약 : 카드 : 주차 :가능 홈페이지 주소 : 전자우편주소 :       ,손님이 만족할 수 있게 써비스로 제공,3,21-2,http://tearstop.seoul.go.kr/mulga/photo/20170404095837.jpg,37.48731916,127.1031081,강남구,수서동,강남구 수서동 찌개와,1063639812
178,8378,코너집,1,한식,서울특별시 중구 퇴계로 336 (광희동1가),02-2279-6266,동대문역사문화공원역 4번 출구 건너편 (이비스버젯앰버서더동대문 호텔 근처),(2022년 7월 기준) ○ 영업시간 : 07:00~22:00 (휴무일: 없음) ○ 좌석수 : 100석  * 지하1층에 단체석 완비(70석) ○ 배달: 불가 ○ 주차: 불가 ○ 기타: 예약 가능 카드 가능       ,35년 이상된 음식점으로  인심 좋으신 주인 아주머니가 저렴한 가격으로  찌개부터 국밥 돈가스 닭도리탕 홍어요리까지 다양하고 맛있는 음식을 제공합니다.  단골손님이 많은 곳이에요~,3,21-2,http://tearstop.seoul.go.kr/mulga/photo/20220511170240.jpg,37.56420084,127.0088661,중구,광희동,중구 광희동 코너집,12053909
179,8599,중화요리일품,2,중식,서울특별시 강남구 테헤란로 322 (역삼동),,선릉역4번출구 한신인터밸리 지하 식당가,영업시간 :11:00~19:00 좌석수 : 휴무일 :일요일 배달 :불가능 예약 : 카드 : 주차 :가능 홈페이지 주소 : 전자우편주소 :       ,손님에게는 친절 좋은 재료 사용,3,21-2,http://tearstop.seoul.go.kr/mulga/photo/20140424132802.jpg,37.50323774,127.0465818,강남구,역삼동,강남구 역삼동 중화요리일품,31730244
180,8341,김밥짱,1,한식,서울특별시 구로구 구로동로 125-1 (구로동),02-861-2644,고대구로병원 맞은 편에서 남구로역 방향에 위치합니다.,영업시간 : 24시간 좌석수 : 20석 휴무일 : 연중무휴(명절 당일 휴무) 배달 : 가능(주변 상가 지역만) 예약 : × 카드 : 가능 주차 : X 홈페이지 주소 : X 전자우편주소 : X ,가격이 저렴하고 친절함,3,21-2,http://tearstop.seoul.go.kr/mulga/photo/20120706150538.JPG,37.48982287,126.8840474,구로구,구로동,구로구 구로동 김밥짱,36004207
181,8177,만리향,2,중식,서울특별시 관악구 은천로41길 20 (봉천동),02-885-5077,은천삼거리에서 은천로 방향 봉천감리교회 근처 ,영업시간 : 오전 11시30분 ~ 오후 9시 배달 : 가능 주차 : 가능 예약 : 가능 휴무일 : 둘째 네째 수요일  좌석 : 25석  카드 : 가능       ,▷본인 소유 건물에서 영업하여 임대료부분 절약 ▷짬뽕 자장면은 관악구 평균가격보다 10% 저렴. 탕수육(중)도 2011년부터 평균가격 유지,3,21-2,http://tearstop.seoul.go.kr/mulga/photo/20120703151236.jpg,37.48664194,126.9553465,관악구,봉천동,관악구 봉천동 만리향,18703422
182,7845,서울중국집,2,중식,서울특별시 송파구 백제고분로41길 43-15 (송파동),3432-5585,전철노선:8호선 잠실역.석촌역 2호선 잠실역 버스노선:100.101.116.119.16.30-1.32.70.1007.1007-1 송파구 석촌호수옆 바다공원횟집 뒷편  ,영업시간:09:00~21:00 휴무일 :월2회 좌  석:24석  배  달:가능 주  차:3대가능', 카드 :가능 예약:가능   ,3,21-2,http://tearstop.seoul.go.kr/mulga/photo/20120703114231.JPG,37.50879637,127.1050307,송파구,송파동,송파구 송파동 서울중국집,1214154710
183,8524,다복콩비지,1,한식,서울특별시 강남구 개포로22길 31 (개포동),02-573-2057,국악고에서 크린토피아 방향으로 150m 3분거리,영업시간 : 10:00~22:00 좌석수 : 40석 휴무일 : 일요일 배달 : 불가능 예약 : 가능 카드 : 가능 주차 : 1~2대 가능 홈페이지 주소 : 전자우편주소 :       ,매일 신선한 오리를 공급받고 있으며 호텔조리장으로 11년 근무하신 사장님이 직접 운영하는 곳이다.,3,21-2,http://tearstop.seoul.go.kr/mulga/photo/20140428131740.jpg,37.47709916,127.0492122,강남구,개포동,강남구 개포동 다복콩비지,-
184,8419,청숫골보리밥쌈밥,1,한식,서울특별시 강남구 삼성로 706 지하1층(청담동),02-3443-4402,청담역 9변 출구 청담동성당 방면으로 도보1분,영업시간 :10:00~21:00 좌석수 :88석 휴무일 :명절 배달 :불가능 예약 :가능 카드 :가능 주차 :가능 홈페이지 주소 :없음 전자우편주소 :없음         ,신선한 야채를 당일 재료 구입하여 가격이 저렴,3,21-2,http://tearstop.seoul.go.kr/mulga/photo/20140501135027.jpg,37.51934248,127.050302,강남구,청담동,강남구 청담동 청숫골보리밥쌈밥,-
185,8646,순미식당,1,한식,서울특별시 영등포구 대방천로 188 (신길동),02-832-7436,신길6동주민센터 인근,영업시간 : 11:30-22:00 좌석수 : 36석 휴무일 : 명절만 휴무 배달 : 불가 예약 : 가능 카드 : 가능 주차 : 가능 홈페이지 주소 : 전자우편주소 :  ,- 정갈하고 맛있는 반찬 6가지가 제공되는 가정식 백반이 5000원.                                        (1인분 주문 시에는 6000원)  - 백반과 삼겹살만 판매하는 단촐한 메뉴 구성의 백반전문 식당.,3,21-2,http://tearstop.seoul.go.kr/mulga/photo/20130612152043.jpg,37.49893903,126.911852,영등포구,신길동,영등포구 신길동 순미식당,19015186
186,8649,연경궁,2,중식,서울특별시 영등포구 국회대로30길 14 (당산동3가),02-2679-3569,영등포구청 후문,영업시간 : 09:00-21:30 좌석수 : 48석 휴무일 : 매주 일요일 배달 : 가능 예약 : 가능 카드 : 가능 주차 : 불가 홈페이지 주소 : 전자우편주소 :  ,저렴한 요일메뉴 집에서 직접 담근 김치!,3,21-2,http://tearstop.seoul.go.kr/mulga/photo/20130611114122.gif,37.52698911,126.8953256,영등포구,당산동,영등포구 당산동 연경궁,13157768
187,8800,포도나무,1,한식,서울특별시 중랑구 용마산로 338 (면목동),493-3336,면동초등학교 입구,영업시간 : 06:00 ~ 21:00 좌석수 : 48 휴무일 : 매주일요일 배달 : 불가 예약 : 가능 카드 : 가능 주차 : 가능 취급품목 : 비빔밥 4000원 기타 :    ,매일 재료를 구입하여 싱싱한 식재료로 정성껏 요리를 만들며 콩나물 국밥 비빔밥 3500원이고 거의 모든 메뉴가 대체로     가격이 저렴함 ,3,21-2,http://tearstop.seoul.go.kr/mulga/photo/20151126151358.jpg,37.58195994,127.0936391,중랑구,면목동,중랑구 면목동 포도나무,1982928972
188,8170,돈구워돈,1,한식,서울특별시 송파구 오금로 532 (거여동),401-6363,5호선 거여역 5번출구 국민은행 방면 도보 5분 3217 종점 버스노선 : 3217 3313,영업시간 : 12:00~23:30 좌석수 : 80좌석 휴무일 : 명절 휴무    ,모든 식자재및 야채. 모든 재료는 최상의 제품으로 조리하며 손님상에 나갔던 음식은 재사용을 절대하지 않고 오픈주방으로 위생관리 철저히 합니다. 가족운영으로 인한 인건비 절감 ,3,21-2,http://tearstop.seoul.go.kr/mulga/photo/20120703143308.jpg,37.49275511,127.1479001,송파구,거여동,송파구 거여동 돈구워돈,36004765
189,7648,예가원,1,한식,서울특별시 영등포구 영신로32길 32 (영등포동4가),02-2675-6963,영등포로타리 타임스퀘어 방향 ,영업시간 : 10:00-22:00 좌석수 : 88석 휴무일 : 휴무없음 배달 : 불가 예약 : 가능 카드 : 가능 주차 : 가능 홈페이지 주소 : 전자우편주소 : 기타 :가격동결로 물가안정에 동참   ,질좋고 푸짐한 음식 청결하고 친절한 서비스,3,21-2,http://tearstop.seoul.go.kr/mulga/photo/20121108163043.jpg,37.51884951,126.9045378,영등포구,영등포동,영등포구 영등포동 예가원,19763812
190,8484,고등어식당,1,한식,서울특별시 강남구 강남대로84길 33 (역삼동),02-2050-0095,강남역 국기원에서 역삼1동주민쎈타쪽 100m 대우빌지하1층,영업시간 :9:00~21:00 좌석수 :20석 휴무일 :일요일 배달 :불가능 예약 :가능 카드 :가능 주차 :가능 홈페이지 주소 : 전자우편주소 :        ,가족이 먹는 것처럼 정성껏 요리,3,21-2,http://tearstop.seoul.go.kr/mulga/photo/20140430112929.jpg,37.49754613,127.0310934,강남구,역삼동,강남구 역삼동 고등어식당,20897124
191,8213,다리목,1,한식,서울특별시 관악구 신림로58가길 7 (신림동),877-4369,신림동 '왕성교회' 뒷편에 위치,영업시간 : 오전 10시 ~ 오후 10시 배달 : 불가능 주차 : 가능(2대) 카드 : 가능 좌석 : 48석 휴무 : 13주 일요일 예약 : 가능        ,▷가족경영으로 인건비 절감.  ▷가족의 건물로 임대료 부분 절감 ▷김치찌개 된장찌개는 2009년부터 가격 동결 ▷쿠폰제 실시 : 쿠폰 10개 음료수 1개 쿠폰 20개 음식 1인 무료,3,21-2,http://tearstop.seoul.go.kr/mulga/photo/20220718152251.jpg,37.48214701,126.9310355,관악구,신림동,관악구 신림동 다리목,20848872
192,8682,횡성한우목장,1,한식,서울특별시 용산구 효창원로48길 6 (용문동),716-8592,효창공원역 3번4번출구 사이 도로로 약 200미터 이동 후 왼쪽,영업시간 : 11:00 ~ 23:00 좌석수 :80 휴무일 :없음(주말공휴일은 오후 5시부터 영업) 배달 :불가 예약 :가능 카드 :가능 주차 :가능      ,모범업소로서 깨끗하고 청결한 위생관리 갈비탕(특) 주변보통가격으로 판매(푸짐한 양)' ,3,21-2,http://tearstop.seoul.go.kr/mulga/photo/20130708102947.jpg,37.53757588,126.9609065,용산구,용문동,용산구 용문동 횡성한우목장,13048503
193,7657,지리산,1,한식,서울특별시 영등포구 여의나루로 67 (여의도동),02-761-1493,5호선 여의도역 4번출구에서 가까움,영업시간 : 10:00-22:00 좌석수 : 56석 휴무일 : 국경일 및 주일휴무 배달 : 불가 예약 : 가능 카드 :가능 주차 : 가능 홈페이지 주소 : 전자우편주소 : 기타 :주인이 식재료 새벽에 구입 및 주방담당    ,#NAME?,3,21-2,http://tearstop.seoul.go.kr/mulga/photo/20121108164752.jpg,37.52355864,126.9265108,영등포구,여의도동,영등포구 여의도동 지리산,36004044
194,8083,돈애우,1,한식,서울특별시 도봉구 도당로 81 (방학동),02-3491-9279,,영업시간 : 좌석수 : 휴무일 : 배달 : 예약 : 카드 : 주차 : 홈페이지 주소 : 전자우편주소 : 기타 :  ,볏집삼겹구이등의 신품목개발로 원재료는 직접 거래 공급받으며 아르바이트생의 고용과 가족운영으로 인건비를 줄임,3,21-2,http://tearstop.seoul.go.kr/mulga/photo/20120620141352.jpg,37.66514108,127.0360209,도봉구,방학동,도봉구 방학동 돈애우,-
195,8126,진사골왕갈비,1,한식,서울특별시 서대문구 이화여대7길 24,02-363-3959,,영업시간 : 좌석수 : 휴무일 : 배달 : 예약 : 카드 : 주차 : 홈페이지 주소 : 전자우편주소 : 기타 :      ,친절하고 서비스가 좋으며 직접 재료 구입으로 재료비를 줄여 저렴한 가격으로 제공 경로우대(노인정에서 오시면 30%할인) ,3,21-2,http://tearstop.seoul.go.kr/mulga/photo/20211210144750.jpg,37.55884448,126.9442823,서대문구,대현동,서대문구 대현동 진사골왕갈비,-
196,8413,항아리 숯불갈비,1,한식,서울특별시 강남구 언주로134길 11-1 (논현동),02-517-2260,논현2동 주민센터에서 언주로 방면으로 도보1분,영업시간 : 11:30~22:00 좌석수 : 72석 휴무일 : 일요일 배달 : 불가능 예약 : 가능 카드 : 가능 주차 : 불가능 홈페이지 주소 : 전자우편주소 :     ,신선한 국내산 재료만을 고집,3,21-2,http://tearstop.seoul.go.kr/mulga/photo/20140501160448.jpg,37.5168427,127.0364969,강남구,논현동,강남구 논현동 항아리 숯불갈비,-
197,8357,미진분식,1,한식,서울특별시 구로구 구로중앙로8길 27 (구로동),02-3281-9409,대림역 2번 출구 방면 좌측길 푸른약국 옆에 위치합니다.,영업시간 : 06:00~21:00 좌석수 : 16석 휴무일 : 연중무휴 배달 : X 예약 : 가능 카드 : X 주차 : X 홈페이지 주소 : X 전자우편주소 : X ,가격이 저렴하고 친절함,3,21-2,http://tearstop.seoul.go.kr/mulga/photo/20120706152307.JPG,37.49245047,126.893119,구로구,구로동,구로구 구로동 미진분식,18448143
198,8732,지우정,1,한식,서울특별시 강북구 삼각산로 130 (수유동),900-9333,지하철 수유역 버스정류장 벽산아파트에서 도보로 2분,영업시간 :9:00~22:00 좌석수 : 92석 휴무일 : 없음 배달 : 불가 예약 : 가능 카드 : 가능 주차 : 가능 홈페이지 주소 : 없음 전자우편주소 : 없음 기타 : 모범음식점     ,1년이상 가격동결업소이며 사장님이 요식업중앙회장으로 표창장 수여받은적 있음,3,21-2,http://tearstop.seoul.go.kr/mulga/photo/20130617110241.jpg,37.64082731,127.0186592,강북구,수유동,강북구 수유동 지우정,1214860534
199,8315,본향,2,중식,서울특별시 송파구 마천로26길 6 (오금동),409-8480,버스 : 331432163317 거여 초등학교에서 하차 ,영업시간 : 오전 11시30분 ~ 오후 9시 좌석수 : 44석 휴무일 : 매월 2주 4주 휴무 배달 : 가능 기타 : 스마트폰 검색 가능 주차가능    ,오픈 주방으로 조리과정 확인 가능합니다 신선한 재료를 당일 공수해서 사용하고 실내가 쾌적합니다. 단골고객 만두 서비스 제공과 배달 인건비 절감 배달시 홀가격 적용합니다.,3,21-2,http://tearstop.seoul.go.kr/mulga/photo/20120704132407.JPG,37.50268179,127.139044,송파구,오금동,송파구 오금동 본향,36004928
200,8180,중앙삼겹시대,1,한식,서울특별시 관악구 중앙길 12 (봉천동),875-9998,봉천중앙시장' 근처,영업시간 : 오전 10시 ~ 오후 10시 배달 : 불가능 주차 : 가능 예약 : 가능 좌석 : 10석 카드 : 가능 휴무일 :  첫째 일요일         ,▷2015년 새로운 장소로 이전하여 깔끔한 매장 ▷전통시장(오거리시장)에서 식재료 신선하고 저렴하게 구입,3,21-2,http://tearstop.seoul.go.kr/mulga/photo/20220718174435.jpg,37.48402414,126.9539051,관악구,봉천동,관악구 봉천동 중앙삼겹시대,1288558613
201,8573,씨씨존치킨,4,기타외식업(다방패스트푸드등),서울특별시 성동구 무수막길 85 (금호동2가),02-2235-7792,,영업시간 : 12:00~24:00 좌석수 : 휴무일 : 배달 : x 예약 : 카드 : 주차 : o 홈페이지 주소 : 전자우편주소 : 기타 :    ,평균가격보다 5000원 정도 싸며 앞으로 가격을 인상하지 않고 저렴하게 판매하여 가격안정에 동참 ,3,21-2,http://tearstop.seoul.go.kr/mulga/photo/20130805111804.jpg,37.55344142,127.020337,성동구,금호동,성동구 금호동 씨씨존치킨,17909475
202,8679,모리모리,3,경양식일식,서울특별시 용산구 한강대로 281 (갈월동),702-1441,숙대입구역 7번출구에서 약 20미터,영업시간 : 10:00 ~ 22:00 좌석수 :70석 휴무일 :없음 배달 : 가까운지역 가능 예약 :가능 카드 : 가능 주차 : 불가      ,모범업소로서 깨끗하고 청결한 위생관리  사장님과 종업원 매우친절하고 맛도좋아 주변대학생들이 많이찾음,3,21-2,http://tearstop.seoul.go.kr/mulga/photo/20130715155527.jpg,37.54336493,126.9721693,용산구,갈월동,용산구 갈월동 모리모리,30802314
203,8818,돈스우스,1,한식,서울특별시 양천구 월정로 157 (신월동),2608-5015,,영업시간 : 좌석수 : 휴무일 : 배달 : 예약 : 카드 : 주차 : 홈페이지 주소 : 전자우편주소 :  ,넒은 실내로 단체회식을 할 수 있음  양질의 고기를 저렴한 가격으로 이용할 수 있음 친절함,3,21-2,http://tearstop.seoul.go.kr/mulga/photo/20140114174112.jpg,37.53276617,126.8364683,양천구,신월동,양천구 신월동 돈스우스,-
204,8672,또순이네,1,한식,서울특별시 종로구 사직로 130 (적선동) 적선현대빌딩 지하1층,730-6980,지하철 3호선 경복궁역과 연결되어 있음. ,영업시간 : 7시 ~ 20시 좌석수 : 10개 휴무일 : 일요일 공휴일 배달 : 불가 예약 : 불가 카드 : 가능 주차 : 불가     ,행정자치부 청사 주변에 위치한 업소로 저렴하고 깨끗하여 직장인들이 이용하기 좋은 업소,3,21-2,http://tearstop.seoul.go.kr/mulga/photo/20130605155752.jpg,37.57536753,126.9733218,종로구,적선동,종로구 적선동 또순이네,17897793
205,8017,미락,1,한식,서울특별시 성북구 화랑로25길 13 (상월곡동),915-3334,장위골목시장입구와 우체국 사이에 위치,영업시간 : 11시 30분 ~ 23시 좌석수 : 80개정도 휴무일 : 연중무휴 배달 : 무 예약 : 가능 카드 : 가능 주차 : 가능 홈페이지 주소 : 전자우편주소 :  ,저렴한 가격으로 30년간 제공,3,21-2,http://tearstop.seoul.go.kr/mulga/photo/20150428091749.jpg,37.60916197,127.0521779,성북구,상월곡동,성북구 상월곡동 미락,36004760
206,8728,공새미김밥,1,한식,서울특별시 광진구 뚝섬로58길 19 (자양동),455-8178,잠실대교 북단사거리에서 200m 프라젠스파 앞,영업시간 : 07:00 ~ 19:00 좌석수 : 20석 휴무일 : 매주일요일 배달 : 예약 : 카드 : 주차 : 홈페이지 주소 : 전자우편주소 :    ,ㅇ 가족운영으로 인건비 절감 ㅇ 가격이 저렴하고 청결함,3,21-2,http://tearstop.seoul.go.kr/mulga/photo/20150714111639.jpg,37.53114307,127.0846902,광진구,자양동,광진구 자양동 공새미김밥,-
207,8191,제주토종흑돼지,1,한식,서울특별시 관악구 남현1길 68-14 (남현동),583-9250,남현동 먹거리 골목에 위치,영업시간 : 오전 10시30분 ~ 오후 12시    일요일 : 오후4시~오후10시 배달 : 불가능 주차 : 가능 카드 : 가능 좌석 : 48석(1.2층) 예약 : 가능 휴무일 : 재량휴업       ,▷관악구 평균가격보다 10%이상 저렴 ▷김치찌개에 제주토종흑돼지 사용. 된장찌개에는 우렁을 사용하여 더 맛있음.,3,21-2,http://tearstop.seoul.go.kr/mulga/photo/20120703161441.jpg,37.47516875,126.9811246,관악구,남현동,관악구 남현동 제주토종흑돼지,12829717
208,8550,만미정 식당,1,한식,서울특별시 강북구 솔매로43길 96 (미아동),983-8884,지하철 미아역 버스정류장 수유시장역에서 도보5분,영업시간 : 11:30 ~ 21:00 좌석수 : 4개 휴무일 : 첫째 셋째주 일요일 배달 : 불가 예약 : 가능 카드 : 가능 주차 : 불가 홈페이지 주소 : 전자우편주소 :   ,깔끔한 내부와 식사로 단골 손님들이 꾸준히 찾고 있음,3,21-2,http://tearstop.seoul.go.kr/mulga/photo/20130805151237.jpg,37.62993042,127.0228407,강북구,미아동,강북구 미아동 만미정 식당,36004012
209,8383,다동분식,1,한식,서울특별시 중구 남대문로9길 16 (다동),02-755-7414,2호선 을지로입구역 -1번 출구 근처 하나SK카드 빌딩 앞,(2022년 5월 기준) ○ 영업시간 :  06:30 ~ 21:00 (휴무일: ) ○ 좌석수 : 96석 * 단체석 완비 ○ 배달 : 불가 ○ 주차 :  불가 ○ 기타:  예약 가능 카드 가능 ,가격이 주변업소에 비해 저렴하고 메뉴가 다양하여 인근 직장인들이 자주 이용하는 업소입니다. ,3,21-2,http://tearstop.seoul.go.kr/mulga/photo/20220512110045.jpg,37.56683604,126.9815496,중구,다동,중구 다동 다동분식,18001916
210,8020,서울숯불갈비,1,한식,서울특별시 성북구 정릉로29길 8 (정릉동),912-1902,정릉로 경남아파트 옆에 위치,영업시간 : 10시 ~ 23시 좌석수 : 40개 휴무일 : 연중무휴 배달 : 무 예약 : 가능 카드 : 가능 주차 : 가능 홈페이지 주소 : 전자우편주소 : 기타 :  ,가격도 저렴하고 친절로 모시며 앞으로도 계속 가격안정에 앞장서서 가격을 올리지 않을 계획입니다.,3,21-2,http://tearstop.seoul.go.kr/mulga/photo/20120618114540.jpg,37.60381977,127.0157594,성북구,정릉동,성북구 정릉동 서울숯불갈비,18908594
211,8036,할매김밥,1,한식,서울특별시 중랑구 동일로163길 17 (묵동),02-979-6227,먹골역 7번출구에서 신한은행끼고 좌회전하여 90미터 직진,영업시간 : 8시~24시 좌석수 : 4석 휴무일 : 없음 배달 : 가까운 곳만(도보로 배달) 예약 : 가능 카드 : 가능 주차 : 불가능  ,지하철 7호선 먹골역 인근 업소로 교통이 편리하며 모든 메뉴가 저렴하며 가게 이름처럼 고향집 할머니 손맛을 느낄 수 있는 곳 가족이 운영하여 인건비 최소 돈까스 소스 등을 직접 만들어 제공   ,3,21-2,http://tearstop.seoul.go.kr/mulga/photo/20151126152019.jpg,37.61180773,127.0763273,중랑구,묵동,중랑구 묵동 할매김밥,20869689
212,8613,한우식당,1,한식,서울특별시 구로구 경인로33길 61-3 (개봉동),02-2612-5157,개봉1동 동사무소 옆에 위치합니다.,영업시간 : 10:00~22:00 좌석수 : 70석 휴무일 : 연중 무휴 배달 : 가능 예약 : 가능 카드 : 가능 주차 : X (동사무소 옆 주차장 이용)-한시간무료 홈페이지 주소 : X 전자우편주소 : X ,가격이 저렴하고 청결함,3,21-2,http://tearstop.seoul.go.kr/mulga/photo/20130306161954.JPG,37.50055977,126.851002,구로구,개봉동,구로구 개봉동 한우식당,13490643
213,8461,왕가네왕만두,1,한식,서울특별시 강남구 역삼로 420 지상1층(대치동),02-555-0208,도성초교차로에서 휘문고 방향으로 170m 3분거리,영업시간 :07:30~22:30 좌석수 :20석 휴무일 :매주 일요일 배달 :가능 예약 :불가능 카드 :가능 주차 :가능 홈페이지 주소 : 전자우편주소 :       ,신선한 재료 사용 친절한 서비스 속이 알찬 만두를 직접 만듬,3,21-2,http://tearstop.seoul.go.kr/mulga/photo/20180329100229.jpg,37.50099428,127.0528847,강남구,대치동,강남구 대치동 왕가네왕만두,18577688
214,8393,모아분식,1,한식,서울특별시 강동구 천호대로191길 6 (길동),02-484-7785,강동 우체국 인근,영업시간 :오전 7시-밤7시 좌석수 :10석 휴무일 :매주 일요일 (주문은 가능) 배달 : 불가 예약 : 카드 :가능 주차 :불가 홈페이지 주소 : 전자우편주소 :   ,저렴한 가격으로 재료를 아끼지 않고 쓰는게 맛있는 비결 특히 꼬마김밥은 유치원생도 먹기 좋을 정도로 작고 간편함. *화학 조미료를 사용하지 않고 천연 재료를 사용하여 음식을 만듭니다.,3,21-2,http://tearstop.seoul.go.kr/mulga/photo/20220527141438.jpg,37.5353921,127.1444867,강동구,길동,강동구 길동 모아분식,1088665525
215,8615,송주불냉면,1,한식,서울특별시 강서구 방화동로 49  (방화동) ,02-2662-5509,방화2동 기업은행과 던킨도너츠 옆,영업시간 : 11:00~22:00 좌석수 : 48석 휴무일 : 미정 배달 : 불가 예약 : 가능 카드 : 가능 주차 : 가능 홈페이지 주소 : 없음 전자우편주소 : 없음   ,친절 및 업소 청결,3,21-2,http://tearstop.seoul.go.kr/mulga/photo/20130717165543.JPG,37.56507473,126.8114806,강서구,방화동,강서구 방화동 송주불냉면,20741319
216,8399,바보네집,1,한식,서울특별시 강남구 논현로120길 14 (논현동),02-544-8870,논현동 성당에서 길(논현로) 건너편 도보4분,영업시간 :11:00~21:00 좌석수 :32석 휴무일 :매주 토일요일 배달 :불가능 예약 :불가능 카드 :가능 주차 :불가능 홈페이지 주소 : 전자우편주소 :      ,손님에게 최선을 다하는 마음 가짐으로 일함,3,21-2,http://tearstop.seoul.go.kr/mulga/photo/20170404101144.jpg,37.51083869,127.0333165,강남구,논현동,강남구 논현동 바보네집,-
217,7852,신성김밥,1,한식,서울특별시 송파구 백제고분로22길 28 (삼전동 칸스빌),420-9563,버스노선: 3315.3314.3417.8202.3423.340.363.1007-1 삼전동 주민센터 방면 100m'  ,영업시간 - 08:30 ~20:00 휴무일:매주일요일 좌   석:14석 배   달:불가 주   차:불가 예   약:불가 카   드:가능 ,홀 방문시 저렴한 가격으로 제공 신선한 국내산 식자재로  정성껏 맛있게 제공합니다 ' ,3,21-2,http://tearstop.seoul.go.kr/mulga/photo/20120703113956.JPG,37.50148797,127.0882814,송파구,삼전동,송파구 삼전동 신성김밥,20880096
218,8031,화성각,2,중식,서울특별시 중랑구 면목로48길 37 (면목동),02-432-8301,사가정역 1번출구에서 면목역 방향으로 조금 가다가 신한은행끼고있는 골목(면목로48길)으로 들어가서 180미터정도 직진 ,영업시간 : 11시~21시 좌석수 : 16석 휴무일 : 둘째넷째 화요일 배달 : 가능 예약 : 가능 카드 : 가능 주차 : 불가능   ,20년 넘은 중국집으로 얼리지 않은 생고기와 신선한 야채 등 재료에 정성을 다하며 저렴한 가격으로 판매 가족끼리 운영하여 인건비 최소화 간짜장이나 볶음밥 등도 저렴한 편임  ,3,21-2,http://tearstop.seoul.go.kr/mulga/photo/20151126152603.jpg,37.58226838,127.0907205,중랑구,면목동,중랑구 면목동 화성각,18192352
219,8077,난짜장 넌짬뽕,2,중식,서울특별시 도봉구 도봉로 153길 26 (도봉동),02-956-0073,,영업시간 : 좌석수 : 휴무일 : 배달 : 예약 : 카드 : 주차 : 홈페이지 주소 : 전자우편주소 : 기타 :,지역내 봉사활동 및 짜장면과 짬뽕을 저렴한 가격으로 맛볼수 있는 업소임,3,21-2,http://tearstop.seoul.go.kr/mulga/photo/20120620134026.jpg,37.67000729,127.0419651,도봉구,도봉동,도봉구 도봉동 난짜장 넌짬뽕,-
220,8266,왕짜장,2,중식,서울특별시 구로구 경인로47길 49 (고척동),02-2625-5476,동양미래대학 먹자골목 안에서  500m쯤에 위치해 있습니다.,영업시간 : 9:00~21:00 좌석수 : 30석 휴무일 : 매주 일요일 배달 : X 예약 : X 카드 : 가능 주차 : X 홈페이지 주소 : X 전자우편주소 : X ,짜장 맛이 손님들이 다들 맛있다고 한다.,3,21-2,http://tearstop.seoul.go.kr/mulga/photo/20120706153555.JPG,37.50116963,126.8654611,구로구,고척동,구로구 고척동 왕짜장,-
221,8380,소달구지,1,한식,서울특별시 중구 퇴계로4길 28 (회현동1가),02-755-1585,4호선 회현역(남대문시장)3번출구로 나와  티마크호텔 사잇길로 올라오세요.,(2022년 5월 기준) ○ 영업시간 :  10:30 ~ 22:00 (휴무일: 매주 일요일) ○ 좌석수 : 96석 ○ 배달 : 불가 ○ 주차 : 불가  * 인근 유료주차장 이용 ○ 기타:  예약 가능 카드 가능  ,매출의 50%이상이 고기 재료비로 쓰이는 착한가격 좋은 음식 20년 노하우와 정성으로 맛있게 대접해 드립니다. ,3,21-2,http://tearstop.seoul.go.kr/mulga/photo/20220511195708.jpg,37.55746243,126.9788585,중구,회현동,중구 회현동 소달구지,18016099
222,8720,털보식당,1,한식,서울특별시 도봉구 도당로 148 (방학동),3492-7926,,영업시간 : 좌석수 : 휴무일 : 배달 : 예약 : 카드 : 주차 : 홈페이지 주소 : 전자우편주소 : 기타 :   ,,3,21-2,http://tearstop.seoul.go.kr/mulga/photo/,37.66695396,127.0424582,도봉구,방학동,도봉구 방학동 털보식당,1811237121
223,8403,청송숯불화로구이,1,한식,서울특별시 강남구 언주로114길 17 (논현동),02-549-3739,아크로힐스 논현아파트 뒤편,영업시간 :09:00~22:00 좌석수 :64석 휴무일 :명절 배달 :불가능 예약 :가능 카드 :가능 주차 :10대 홈페이지 주소 : 전자우편주소 :       ,최상의 식재자 사용 천연조미료만 사용 제주산 돼지생고기 사용 김치 직접 담궈서 제공(묵은지 제공),3,21-2,http://tearstop.seoul.go.kr/mulga/photo/20170404101037.jpg,37.51024939,127.0390466,강남구,논현동,강남구 논현동 청송숯불화로구이,18842432
224,8452,한보식당,1,한식,서울특별시 강남구 남부순환로 2921 남서울상가지하 11호(대치동),02-562-0276,대치역 1번 출구 250m 4번거리 남서울종합상가내 지하1층,영업시간 :07:00~20:00 좌석수 :20석 휴무일 :매주 일요일 배달 :가능 예약 :가능 카드 :가능 주차 :가능 홈페이지 주소 : 전자우편주소 :     ,가정식으로 어머니의 손맛을 느낄수 있음,3,21-2,http://tearstop.seoul.go.kr/mulga/photo/20140501113322.jpg,37.49349436,127.059773,강남구,대치동,강남구 대치동 한보식당,36003990
225,8173,국일관,1,한식,서울특별시 송파구 마천로 345-1 (마천동),406-0451,버스노선 : 3314 3315 3318 송파상운 종점 정류장 하차 ,영업시간 :오전 11시~오후 10시  좌석수 : 30석 휴무일 : 연중무휴 주차 : 불가 카드 : 가능 예약 : 가능 배달 : 불가    ,오픈이래 가격동결친절깔끔한 식당내부식기류,3,21-2,http://tearstop.seoul.go.kr/mulga/photo/20120703144501.JPG,37.49292189,127.1528549,송파구,마천동,송파구 마천동 국일관,-
226,8018,보성각,2,중식,서울특별시 성북구 정릉로9길 56 (정릉동),913-4050,국민대후문 앞에 위치,영업시간 : 10시 ~ 20시 좌석수 : 100개 휴무일 : 매주 일요일 배달 : 가능 예약 : 가능 카드 : 가능 주차 : 가능 홈페이지 주소 : 전자우편주소 :  ,대학교앞이라서 학생들을 상대로 저렴한 가격으로 푸짐한 음식을 제공,3,21-2,http://tearstop.seoul.go.kr/mulga/photo/20120618105523.jpg,37.61094296,126.9994244,성북구,정릉동,성북구 정릉동 보성각,20882107
227,7812,퓨전 한마당,3,경양식일식,서울특별시 종로구 대학로5길 5 (연건동),741-3455,대학로 방송통신대학교 앞 한솥도시락 골목으로 20m,영업시간 : 오전 9:30 ~ 오후 08:30까지 좌석수 :7테이블 휴무일 :일요일 배달 :불가 예약 :가능 카드 :가능 주차 :불가    ,특제소스 우수한고기,3,21-2,http://tearstop.seoul.go.kr/mulga/photo/20111102153035.JPG,37.5781983,127.0016959,종로구,연건동,종로구 연건동 퓨전 한마당,-
228,8483,수미정,1,한식,서울특별시 강남구 강남대로84길 33 대우디오빌플러스 지하1층 114호 (역삼동),02-2050-0099,국기원에서 역삼1동주민자치쎈타쪽으로 100M 대우빌1층,영업시간 :10:00~21:00 좌석수 :20석 휴무일 :토요일 배달 :불가능 예약 : 카드 : 주차 :가능 홈페이지 주소 : 전자우편주소 :         ,신선한 재료를 사용 다양한 반찬 제공,3,21-2,http://tearstop.seoul.go.kr/mulga/photo/20140430131532.jpg,37.49754613,127.0310934,강남구,역삼동,강남구 역삼동 수미정,1907041649
229,8390,금복식당,1,한식,서울특별시 동대문구 안암로20길 16 (제기동),923-7844,고려대학교 정문건너편 먹자골목으로 진입하여 주택가에 위치(한옥가),영업시간 : 10:30~21:00 좌석수 : 테이블8석 의자32석 휴무일 : 없음 배달 : 무 예약 : 가능 카드 : 주차 : 홈페이지 주소 : 전자우편주소 :   ,10년간 고대앞에서 운영하는 식당으로 학생들이 집밥을 먹는 것과 같다고 좋아함. 학교앞 골목안 깊숙이 있으며 외국인도 칭찬을 남긴집으로 학생들이 아주 좋아하는 식당,3,21-2,http://tearstop.seoul.go.kr/mulga/photo/20130820150356.jpg,37.58736703,127.0350148,동대문구,제기동,동대문구 제기동 금복식당,11784613
230,8356,일억조분식,1,한식,서울특별시 구로구 가마산로26길 11 (구로동),02-869-8454,구로구청 사거리에서 대림3동쪽으로 500m오시다가 수도사업소에서 우회전한 후100m 직진하여 작은 사거리(미소할인마트)에서 좌회전후 좌측에서 30m 지점에 위치해 있습니다.,영업시간 : 5:00~23:00 좌석수 : 53석 휴무일 : 구정3일 추석3일 총 6일 배달 : 분식점 기준 800m이내만 가능 예약 : 가능 카드 : 가능 주차 : 공영 주차장 이용 홈페이지 주소 : X 전자우편주소 : X,모든 재료는 국산을 사용하려고 노력하고 있으며 매일 사용할 재료만을 구입하여 누적 재료가 없으며 모든 메뉴에는 MGA(미원)을 전혀 사용하지 않습니다. 내 가족이 먹는다는 마음으로 맛있게 조리하여 최고의 분식을 위해 항상 노력합니다.,3,21-2,http://tearstop.seoul.go.kr/mulga/photo/20120706152235.JPG,37.49568725,126.891249,구로구,구로동,구로구 구로동 일억조분식,18959415
231,8323,소백산,1,한식,서울특별시 송파구 백제고분로39길 28 (석촌동),422-9929,석촌역(8호선) 8번출구 250m 이면도로 불광사 골목,영업시간 : 11:00~ 23:00  좌석수 : 약 90석 기타 : 매주 일요일 휴무 주차가능    ,청결하고 아늑한 분위기 고급식재료를 사용하며 최고의 맛으로 고객에게 보답하고 있습니다. ,3,21-2,http://tearstop.seoul.go.kr/mulga/photo/20120704134353.JPG,37.50670258,127.1039507,송파구,석촌동,송파구 석촌동 소백산,18861982
232,8295,닷컴분식,1,한식,서울특별시 구로구 남부순환로97길 20-6 (개봉동),02-2616-4048,개봉역1번 출구 근처에 위치합니다.,영업시간 : 6:30~23:00 좌석수 : 52석 휴무일 : 연중무휴 배달 : 가능 예약 : 가능 카드 : 가능 주차 : X 홈페이지 주소 : X 전자우편주소 : X,가격이 저렴하고 친절함,3,21-2,http://tearstop.seoul.go.kr/mulga/photo/20120706155830.JPG,37.4940385,126.8586456,구로구,개봉동,구로구 개봉동 닷컴분식,18490270
233,8055,먹고갈래지고갈래,1,한식,서울특별시 종로구 수표로 117 (낙원동),3673-1239,종로3가역 5호선 5번 출구로 나와서 먹고갈래지고갈래까지 약 236m 걷기 ,영업시간 : 11시 ~24시 좌석수 : 100개 휴무일 : 명절 배달 :불가 예약 :가능 카드 :가능 주차 :불가    ,낙원동 일대 어르신들 쉼터로 유명한 곳임. 커피 부터 식사까지 다양한 메뉴를 싼 가격에 제공함. ,3,21-2,http://tearstop.seoul.go.kr/mulga/photo/20120619140356.jpg,37.5717755,126.988906,종로구,낙원동,종로구 낙원동 먹고갈래지고갈래,17924788
234,8507,우리생고기,1,한식,서울특별시 강남구 개포로82길 13-17 2층 2호(개포2동),02-577-7740,,영업시간 :10:00~22:00 좌석수 : 휴무일 : 배달 :불가능 예약 : 카드 : 주차 :가능 홈페이지 주소 : 전자우편주소 :           ,저렴한 가격을 유지하여10 단골손님을 유지하고 있음,3,21-2,http://tearstop.seoul.go.kr/mulga/photo/20200902105741.jpg,37.48889849,127.0685805,강남구,개포동,강남구 개포동 우리생고기,36004730
235,8689,산골녹차냉면,1,한식,서울특별시 용산구 효창원로 147 (효창동),716-1988,효창공원역 1번출구에서 금양초등학교 방면 200m 버스정류장 옆,영업시간 :10:00 ~ 21:00 좌석수 : 50석 휴무일 : 없음 배달 :가능(배달비 별도) 예약 : 가능 카드 :가능 주차 :불가  ,청결한 위생관리와 항상 신선한 재료로 요리하며 종업원 모두가 성심성의껏 손님을 대함 ,3,21-2,http://tearstop.seoul.go.kr/mulga/photo/20150812111652.jpg,37.54128506,126.9618529,용산구,효창동,용산구 효창동 산골녹차냉면,18721300
236,8283,화승원,2,중식,서울특별시 구로구 경인로35길 40 (개봉동),02-2685-1397,경인중학교 근처에 위치합니다.,영업시간 : 09:00~21:00 좌석수 : 30석 휴무일 : 일요일 휴무 배달 : 가능 예약 : 가능 카드 : 가능 주차 : ○ 홈페이지 주소 : X 전자우편주소 : X  ,양념 고추가루 마늘 콩을 국내산만 사용,3,21-2,http://tearstop.seoul.go.kr/mulga/photo/20120706154310.JPG,37.49897375,126.8541896,구로구,개봉동,구로구 개봉동 화승원,36004918
237,8477,사천옥,1,한식,서울특별시 강남구 선릉로86길 16 (대치동),02-539-1075,선릉역 2번 출구 200m 3분거리 GS25 대치 선릉점 우측 골목,영업시간 :10:30~21:30 좌석수 :80석 휴무일 :매주 일요일 배달 :불가능 예약 :식사불가능 고기가능 카드 :가능 주차 :불가능 홈페이지 주소 : 전자우편주소 :      ,가격대비 반찬 가지수가 풍부함,3,21-2,http://tearstop.seoul.go.kr/mulga/photo/20140430160838.jpg,37.50326221,127.0510214,강남구,대치동,강남구 대치동 사천옥,18576428
238,8137,송림정,1,한식,서울특별시 관악구 은천로 36 (봉천동),878-7777,봉일프라자 옆 건물국회단지입구 맞은편 위치,영업시간 : 오전 9시 30분 ~ 오후 9시 30분 배달 : 불가능 주차 : 불가능 카드 : 가능 예약 : 가능 휴무일 : 둘째 넷째 월요일 좌석수 : 8석     ,▷국회단지 입구 건너편에 위치 ▷관악구 평균가격보다 10% 저렴 ▷복지관 어르신들에게 한달에 4분씩 식사 무료제공,3,21-2,http://tearstop.seoul.go.kr/mulga/photo/20120703112241.jpg,37.48602819,126.9392268,관악구,봉천동,관악구 봉천동 송림정,20349400
239,8178,유창숯불갈비,1,한식,서울특별시 관악구 은천로23길 14 (봉천동 유창빌),883-5759,현대시장 사거리에서 은천로 방향 '현대시장앞'버스 정거장 골목으로 50M,영업시간 : 오전 10시 ~ 오후 10시 30분 배달 : 불가능 주차 : 가능 예약 : 가능 카드 : 가능 휴무일 : 없음 좌석 : 40석     ,▷본인 소유의 건물로 임대료 절감 ▷가족경영으로 인건비 절약 ▷30년 경력을 활용하여 저렴한 곳에서 식재료 구입.,3,21-2,http://tearstop.seoul.go.kr/mulga/photo/20120703152106.jpg,37.48726,126.948211,관악구,봉천동,관악구 봉천동 유창숯불갈비,18704580
240,8281,개봉분식,4,기타외식업(다방패스트푸드등),서울특별시 구로구 고척로21나길 65 (개봉동),02-2625-9465,개봉중학교 근처 매봉그린맨션 옆에 위치합니다.,영업시간 : 9:00~21:00 좌석수 : 24석 휴무일 : 매주 일요일 배달 : X 예약 : X 카드 : X 주차 : X 홈페이지 주소 : X 전자우편주소 : X,저렴한 가격으로 마진은 줄이고 청결함과 친절함을 유지하기 위해 노력합니다.,3,21-2,http://tearstop.seoul.go.kr/mulga/photo/20120706154226.JPG,37.50182903,126.8422675,구로구,개봉동,구로구 개봉동 개봉분식,20856960
241,7972,콩나물국밥,1,한식,서울특별시 종로구 자하문로 3 (내자동),738-8223,금천교시장 입구에 위치,영업시간 : 7:30~20:30 좌석수 : 10개 휴무일 :둘째 넷째 일요일 배달 :불가 예약 :가능 카드 :가능 주차 :불가    ,테이블 10개를 주인이 혼자 운영하여 저렴한 가격을 유지 세종마을(서촌)입구에 위치하여 찾기 쉽고 순두부 찌개 콩나물국밥 맛이 특히 뛰어남.,3,21-2,http://tearstop.seoul.go.kr/mulga/photo/20120511112828.jpg,37.57648307,126.9722648,종로구,내자동,종로구 내자동 콩나물국밥,37943932
242,8282,완산정,1,한식,서울특별시 구로구 개봉로23가길 37 (개봉동),02-2688-4655,개봉역 북쪽 광장에서 01번 마을버스 시발점 앞입니다.,영업시간 : 9:00~24:00 좌석수 : 7개 테이블로 총 28석 휴무일 : 명절 당일 하루 (설날 추석) 배달 : X 예약 : 전화로 가능 카드 : 가능 주차 : 가능(단 유료) 홈페이지 주소 : X 전자우편주소 : X,한 사람이 20년동안 노하우를 쌓은 한식집입니다. 거의 모든 재료는 직접 전주에서 농사지은 것으로 택배로 받고 있습니다.,3,21-2,http://tearstop.seoul.go.kr/mulga/photo/20120706154245.JPG,37.49525476,126.858341,구로구,개봉동,구로구 개봉동 완산정,36004016
243,8606,영자씨우동김밥,1,한식,서울특별시 중구 마른내로 15-1 (저동2가),02-2272-9791,2호선 을지로3가 11번 또는 12번 출구 근처(중부경찰서 사거리에 위치),(2022년 7월 기준) ○ 영업시간 :  07:00~21:00 ○ 좌석수 : 30석 ○ 배달 : 불가 ○ 주차 : 불가 ○ 기타:  예약 가능 카드 가능     ,힙지로에 왔다가 배고플 때 먹는 가격 착하고 양이 푸짐하고 맛 좋은 가게!,3,21-2,http://tearstop.seoul.go.kr/mulga/photo/20220511172651.jpg,37.56495413,126.9896068,중구,저동,중구 저동 영자씨우동김밥,1113883660
244,8340,칭니,2,중식,서울특별시 구로구 구로중앙로 198 (구로동),02-2634-1480,구로기계공구상가내에 위치합니다.,영업시간 : 09:00~22:00 좌석수 : 24석 휴무일 : 매주 일요일 배달 : 가능 예약 : 가능 카드 : 가능 주차 : 가능(구로기계공구상가 주차장 이용) 홈페이지 주소 : X 전자우편주소 : X,가격이 저렴하고 친절함,3,21-2,http://tearstop.seoul.go.kr/mulga/photo/20120706150456.JPG,37.50415094,126.8807924,구로구,구로동,구로구 구로동 칭니,32873615
245,8306,방이맛집,1,한식,서울특별시 송파구 오금로11길 63-9 (방이동),416-5567,방이 중학교 앞 골목  전철노선: 8호선 잠실역. 몽촌토성역 하차 버스노선 : 341330-534123411 올림픽공원 정류장 하차 ,영업시간 : 오전 9::30 ~ 오후 9:30 좌석수 : 12개(테이블) 휴무일 : 매주 일요일 기타 :65세이상 : 500원 가격할인 주차가능-2대   ,깨끗하고 쾌적한 업소로서 어르신께 저렴한 가격으로 대접하고 있습니다. 친절함에도 만족을 할수 있는 업소입니다. ,3,21-2,http://tearstop.seoul.go.kr/mulga/photo/20120704130717.JPG,37.51522785,127.114319,송파구,방이동,송파구 방이동 방이맛집,11861413
246,8998,양철집,1,한식,서울특별시 강남구 언주로153길 16 (신사동) 1층,02-542-6689,압구정CGV에서 도산대로 사거리 방면으로 도보 5분,영업시간 :11:00~23:30 좌석수 : 휴무일 : 배달 :불가능 예약 : 카드 : 주차 :가능 홈페이지 주소 : 전자우편주소 : 기타 :     ,,3,21-2,http://tearstop.seoul.go.kr/mulga/photo/20160122162346.jpg,37.52275026,127.0318786,강남구,신사동,강남구 신사동 양철집,11718455
247,7813,삼삼뚝배기,1,한식,서울특별시 종로구 동숭길 51 (동숭동),765-4683,대학로역 2번출구 마로니에공원 지나서 세익스피어극장 옆.,영업시간 : 오전 9:30 ~ 오후 9:30까지 좌석수 : 15개 휴무일 :명절 배달 :불가 예약 :가능 카드 :가능 주차 :불가    ,위생적 친절 뚝빼기 국물맛,3,21-2,http://tearstop.seoul.go.kr/mulga/photo/20111102153251.JPG,37.58055641,127.0041907,종로구,동숭동,종로구 동숭동 삼삼뚝배기,18676275
248,8069,분식나라,1,한식,서울특별시 중랑구 동일로140길 25 (중화동),02-2209-2833,중화역 1번출구에서 묵동방향으로 가다가 우회전하여 중랑중학교 방향으로 100미터 직진 ,영업시간 : 10시 ~ 21시 좌석수 : 7석 휴무일 : 매주 일요일 배달 : 가능(근거리만) 예약 : 불가능 카드 : 가능 주차 : O(건물지하에 1대 가능) 취급품목 : 김치짜개 5000원    ,가족끼리 운영하여 인건비 절감 모든 메뉴가 5000원 이하로 저렴한 가격을 유지하면서 맛있는 음식으로 단골이 많음 매일 신선한 재료 직접 구입 ,3,21-2,http://tearstop.seoul.go.kr/mulga/photo/20151126151623.JPG,37.60443355,127.0805827,중랑구,중화동,중랑구 중화동 분식나라,36004170
249,8076,솔잎식당,1,한식,서울특별시 마포구 마포대로4길 46 (도화동),717-2044,마포역 4번 출구 도보 5분거리 : 우성아파트 1~3동 정문 200m 아래 위치함.,영업시간 : 11:00~ 21:00 좌 석 수  :  40석 휴 무 일  :  매주 일요일 배     달  :  불가능.      예     약  :  가능 카     드  :  가능 주     차  :  2대 홈페이지 주소 : 전자우편주소 :    ,동생이 야채가게를 하고 있어 싱싱한 재료를 신속하게 제공받고 된장 및 양념등은 시골에서 직접 농사를 짓고 있어 최공의 재료를 사용하고 있으며 훗날 고객들에게 기억에 남는 식당이 되고 싶은 신념으로 운영하고 있음.,3,21-2,http://tearstop.seoul.go.kr/mulga/photo/20120728113043.jpg,37.53768227,126.9466032,마포구,도화동,마포구 도화동 솔잎식당,36004024
250,8089,신짜장,2,중식,서울특별시 도봉구 도봉로145길 56 (방학동),02-3492-9209,방학역3번출구 607m,영업시간 : 11:00-22:00 좌석수 : 휴무일 : 배달 : 불가능 예약 : 가능 카드 : 가능 주차 : 불가능 홈페이지 주소 : 전자우편주소 : 기타 :   ,배달없이 포장만 가능하며 가게의 홀에서만 음식을 제공하고 있고 가족간의 운영과 배달원 불채용으로 인건비 절약 고정고객의 상시확보로 정착안정적 가게운영으로 음식을 제공.,3,21-2,http://tearstop.seoul.go.kr/mulga/photo/20120620143306.jpg,37.664731,127.039538,도봉구,방학동,도봉구 방학동 신짜장,20862517
251,8025,홍두깨손칼국수,1,한식,서울특별시 성북구 보문로40길 5 (동소문동5가),953-5595,동일하이빌뒤쪽에 위치,영업시간 : 9시30분 ~ 22시 좌석수 : 50명이상 휴무일 : 매주일요일 배달 : 무 예약 : 가능 카드 : 가능 주차 : 무 홈페이지 주소 : 전자우편주소 : ,다른곳에 비해 가격이 많이 저렴하고 맛도 좋아서 사람들이 항상 붐비는 곳이며 손으로 직접 만들어서 더 맛이 좋은 아주 저렴한 업소입니다.,3,21-2,http://tearstop.seoul.go.kr/mulga/photo/20120618165601.jpg,37.59173817,127.0138025,성북구,동소문동,성북구 동소문동 홍두깨손칼국수,20823808
252,8240,진식당,1,한식,서울특별시 노원구 노원로 564 (상계동 상계주공10단지아파트),02-952-1026,,영업시간 : 09:00 ~ 21:00 좌석수 : 19석 휴무일 : 휴일 예약가능여부 : 불가 배달가능여부 : 불가 주차가능여부 : 가능 카드사용가능    ,자체적인 인건비 재료비 절약으로 인해 2년동안 동일한 가격유지를 하고 있으며 식당환경도 청결하며 종업인 진철도도 우수함. 매일같이 신선한 채소로 음식을 조리함,3,21-2,http://tearstop.seoul.go.kr/mulga/photo/20140122162034.JPG,37.66165211,127.0561247,노원구,상계동,노원구 상계동 진식당,-
253,7806,왕관커피숍,4,기타외식업(다방패스트푸드등),서울특별시 종로구 종로 222 (종로5가),2266-8365,종로5가역 5번출구 30m.,영업시간 :오전9시~오후8시 좌석수 :14개 휴무일 :일요일 배달 :불가 예약 :불가 카드 :가능 주차 :불가  ,실내 분위기가 온화하며 따뜻한 분위기,3,21-2,http://tearstop.seoul.go.kr/mulga/photo/20111107134902.JPG,37.5707604,127.0023577,종로구,종로5가,종로구 종로5가 왕관커피숍,36004238
254,8455,여신김밥,4,기타외식업(다방패스트푸드등),서울특별시 강남구 선릉로90길 70 인텔빌딩 지상1층(대치동),02-501-0925,포스코사거리 동부화재 본사 뒷 골목. 버스정류장(23805)에서 100m거리,영업시간 :07:30~21:00 좌석수 :36석 휴무일 :매주 토일요일 배달 :불가능 예약 :불가능 카드 :가능 주차 :가능 홈페이지 주소 : 전자우편주소 :           ,15년째 가게 운영 세트메뉴가 잘 짜여있다(라면정식),3,21-2,http://tearstop.seoul.go.kr/mulga/photo/20140430180509.jpg,37.50549687,127.0548851,강남구,대치동,강남구 대치동 여신김밥,20851041
255,8384,황소마을,1,한식,서울특별시 용산구 이태원로26길 8 (이태원동),794-6373,이태원역 6호선(4번 출구) 80m,영업시간 :11:00~22:00  좌석수 : 80석  휴무일 : -  배달 : 불가  예약 :예약환영  카드 : 카드 사용 가능  주차 : 불가  ,이태원 관광특구내에 있으며 친절하고 저렴한 가격으로 운영하는 위생모범업소,3,21-2,http://tearstop.seoul.go.kr/mulga/photo/20121101211948.jpg,37.53400336,126.9930088,용산구,이태원동,용산구 이태원동 황소마을,-
256,9000,윤화돈까스기사식당,4,기타외식업(다방패스트푸드등),서울특별시 강남구 도곡로 221 (역삼동),02-3463-0863,도곡로 골프로데오거리 중간쯤 뱅뱅사거리 못가서 S오일주유소 옆,영업시간 :09:30~22:00 좌석수 : 휴무일 : 배달 :불가능 예약 : 카드 : 주차 :가능 홈페이지 주소 : 전자우편주소 : 기타 :          ,,2,21-2,http://tearstop.seoul.go.kr/mulga/photo/20160122162856.jpg,37.49338496,127.0430425,강남구,역삼동,강남구 역삼동 윤화돈까스기사식당,13100219
257,8893,두메산골,1,한식,서울특별시 성북구 보문로36길 16 (삼선동4가),02) 921-3455,삼선동주민센터 뒷 편 성북천 여울다리 앞,영업시간 : 오전 10시 ~ 오후 10시 좌석수 : 40 휴무일 : 매주 일요일 배달 : 불가 예약 : 가능 카드 : 사용가능 주차 : 불가  홈페이지 주소 : 전자우편주소 : 기타 :    ,지역의 평균 가격 미만으로 최근 1년이상 가격동결로 가격 안정에 기여하는 업소로 기부천사 사업장입니다.,2,21-2,http://tearstop.seoul.go.kr/mulga/photo/20150609093517.jpg,37.5909128,127.0150193,성북구,삼선동,성북구 삼선동 두메산골,12936184
258,8518,노숙자아구샤브샤브,1,한식,서울특별시 강남구 개포로22길 13 (개포동),02-577-5017,개포로 포이사거리에서 개포4동주민쎈터쪽으로 150m 우측 국민은행골목 맞은편 안쪽에 있음,영업시간 : 11:00~22:00 좌석수 : 70석 휴무일 : 없음 배달 : 불가능 예약 : 가능 카드 : 가능 주차 : 가능 홈페이지 주소 : 전자우편주소 :     ,저렴한 가격을 유지하여 단골손님을 확보하고 있음,2,21-2,http://tearstop.seoul.go.kr/mulga/photo/20140428132754.jpg,37.47808654,127.0482133,강남구,개포동,강남구 개포동 노숙자아구샤브샤브,-
259,8910,홍천화로숯불갈비,1,한식,서울특별시 광진구 천호대로110길 27 (능동),454-9285,,영업시간 : 11:00 ~ 23:00 좌석수 : 휴무일 : 명절 배달 : 예약 : 카드 : 주차 : 가능 홈페이지 주소 : 전자우편주소 : 기타 :    ,,2,21-2,http://tearstop.seoul.go.kr/mulga/photo/20150714111853.jpg,37.55596156,127.0797546,광진구,능동,광진구 능동 홍천화로숯불갈비,-
260,8906,옥문,2,중식,서울특별시 광진구 광나루로56길 63 (구의동),446-8764,,영업시간 : 10:30 ~ 21:00 좌석수 : 휴무일 : 연중무휴 배달 : 불가 예약 : 카드 : 주차 : 가능 홈페이지 주소 : 전자우편주소 : 기타 :          ,,2,21-2,http://tearstop.seoul.go.kr/mulga/photo/20150714111843.jpg,37.53678879,127.0961606,광진구,구의동,광진구 구의동 옥문,17973223
261,8911,성원식당,1,한식,서울특별시 광진구 천호대로 666 (구의동),453-5939,,영업시간 : 05:30 ~ 21:00 좌석수 : 휴무일 : 매주 일요일 배달 : 예약 : 카드 : 주차 : 가능 홈페이지 주소 : 전자우편주소 : 기타 :        ,,2,21-2,http://tearstop.seoul.go.kr/mulga/photo/20150714111813.jpg,37.55135719,127.089313,광진구,구의동,광진구 구의동 성원식당,1331522359
262,8515,누이야식당,1,한식,서울특별시 강남구 논현로4길 14 (개포동),02-575-4984,영동교회 뒷 골목,영업시간 : 10:00~20:00 좌석수 : 휴무일 : 일요일 배달 : 불가능 예약 : 가능 카드 : 가능 주차 : 가능 홈페이지 주소 : 전자우편주소 :    ,단골손님을 유지하기 위하여 노력하고 있음,2,21-2,http://tearstop.seoul.go.kr/mulga/photo/20140429131324.jpg,37.47265319,127.0513972,강남구,개포동,강남구 개포동 누이야식당,13358439
263,8890,서울초밥,3,경양식일식,서울특별시 영등포구 선유로 250 (양평동4가),02-815-5551,2호선 당산역 12번 출국에서 100m 위치,영업시간 : 11:30~21:30 (브레이크타임 15:00~17:00) 좌석수 :  20석 휴무일 :   배달 :  x 예약 :  가능 카드 : x 주차 : 가능 홈페이지 주소 : 전자우편주소 : 기타 :  ,차별화된 맛과 가격… 정갈한 매장 그리고 친절한 직원 아끼지 않은 식재료와 정성을 다한 맛집,2,21-2,http://tearstop.seoul.go.kr/mulga/photo/20150608172509.JPG,37.53477846,126.8972955,영등포구,양평동,영등포구 양평동 서울초밥,38008776
264,8601,돈까스리,4,기타외식업(다방패스트푸드등),서울특별시 강남구 테헤란로 322 지하층 124호 (역삼동),02-2183-0714,선릉역4번출구 한신인터밸리 식당가,영업시간 :11:00~21:00 좌석수 : 휴무일 :토요일일요일 배달 :불가능 예약 : 카드 : 주차 :가능 홈페이지 주소 : 전자우편주소 :        ,저렴한 가격에 많이 판매,2,21-2,http://tearstop.seoul.go.kr/mulga/photo/20140425173536.jpg,37.50323774,127.0465818,강남구,역삼동,강남구 역삼동 돈까스리,35272033
265,8865,원조정가네매운갈비찜,1,한식,서울특별시 관악구 남부순환로216길 8 (봉천동),883-0250,서울대입구역 3번 출구 10분,좌석수 : 30석 배달 :안됨 예약 :가능 카드 :가능 주차 :가능       ,가성비 좋고 맛있는 집,2,21-2,http://tearstop.seoul.go.kr/mulga/photo/20150107145418.JPG,37.48114624,126.9488978,관악구,봉천동,관악구 봉천동 원조정가네매운갈비찜,1036577547
266,8982,이삭홍두깨칼국수,1,한식,서울특별시 광진구 동일로72길 51 (중곡동),464-8457,중곡제일시장 근처,영업시간 :  11:00~21:30 좌석수 : 휴무일 : 둘째 넷째 일요일 배달 : 불가 예약 :  카드 : 주차 : 불가 홈페이지 주소 : 전자우편주소 : 기타 :   ,,2,21-2,http://tearstop.seoul.go.kr/mulga/photo/20151228153715.jpg,37.56534504,127.0804683,광진구,중곡동,광진구 중곡동 이삭홍두깨칼국수,30976293
267,8916,고향집,1,한식,서울특별시 마포구 포은로8길 28 (망원동),322-8762, 전통시장(망원시장) 주변,영업시간 : 09:00 ~ 22:00 좌석수 :  60석 휴무일 : 일요일 배달 : 불가 예약 : 불가 카드 : 불가 주차 : 불가 홈페이지 주소 : 전자우편주소 : 기타 :    , 저렴한 가격  맛있는 한끼 식사,2,21-2,http://tearstop.seoul.go.kr/mulga/photo/20150716163743.jpg,37.55653255,126.9063062,마포구,망원동,마포구 망원동 고향집,34098437
268,8852,명가손칼국수,1,한식,서울특별시 강동구 풍성로54길 44 (성내동),02-547-4495,강동구 성내3동 주민센터 근처,영업시간 : 좌석수 :50석 휴무일 : 배달 :불가 예약 :불가 카드 :가능 주차 :불가 홈페이지 주소 :없음 전자우편주소 :없음 기타 :   ,저렴한 가격대비 푸짐한 양 제공 및  깨끗한 위생관리로 지역주민과 근처 직장인들이 즐겨찾는 곳(2014년 착한가격업소 신규지정),2,21-2,http://tearstop.seoul.go.kr/mulga/photo/20140920171652.jpg,37.52765123,127.133075,강동구,성내동,강동구 성내동 명가손칼국수,-
269,8809,춘향고을,1,한식,서울특별시 송파구 올림픽로32길 5 (방이동),3431-1433,,영업시간 : 10시~22시 좌석수 : 10개 테이블 휴무일 : 연중무휴 배달 : 불가 예약 : 가능 카드 : 가능 주차 : 가능 ,저렴한 가격으로 서비스를 제공 고객만족 우수,2,21-2,http://tearstop.seoul.go.kr/mulga/photo/20131230150945.JPG,37.51558838,127.109036,송파구,방이동,송파구 방이동 춘향고을,18557715
270,8641,낭주골,1,한식,서울특별시 영등포구 영등포로190 (영등포동),02-2633-7460,김안과병원 인근,영업시간 : 09:00-22:00 좌석수 : 30석 휴무일 : 매주 일요일 배달 : 불가 예약 : 가능 카드 : 가능 주차 : 불가 홈페이지 주소 : 전자우편주소 :,- 한 자리에서 20년 전통의 맛 - 대로변 버스정류장 주변의 이점 - 전체적으로 저가격인 음식 값 및 주인의 직접 경영 ,2,21-2,http://tearstop.seoul.go.kr/mulga/photo/20130611131602.jpg,37.52012652,126.9024651,영등포구,영등포동,영등포구 영등포동 낭주골,20643104
271,8894,유미식당,1,한식,서울특별시 영등포구 시흥대로 611 (대림동),02-844-7953,2호선 구로디지탈단지역 6번출구 100m 위치,영업시간 : 09:00~20:00 좌석수 :  40석 휴무일 : 매주 토일요일 배달 : 불가 예약 : 가능 카드 : 가능 주차 : 불가 홈페이지 주소 : 전자우편주소 : 기타 :    ,10년 전통의 어머니 손맛으로 인근 직장인들에게 인기  대체적으로 저렴한 가격 단골손님에게는 500원 할인,2,21-2,http://tearstop.seoul.go.kr/mulga/photo/20150609104436.JPG,37.48717922,126.9044822,영등포구,대림동,영등포구 대림동 유미식당,1175386138
272,8695,풍년갈비,1,한식,서울특별시 서대문구 통일로 495 (홍은동),3216-1903,,영업시간 : 10:30 ~ 23 :30 좌석수 : 휴무일 : 배달 : 불가 예약 : 카드 : 주차 : 가능(주차비 1시간 지원) 홈페이지 주소 : 전자우편주소 : 기타 :      ,인건비를 최대한 줄이며 직접 농사지은 식자재 이용하여 원가 절감 ,2,21-2,http://tearstop.seoul.go.kr/mulga/photo/20211210144948.jpg,37.59204393,126.9408723,서대문구,홍은동,서대문구 홍은동 풍년갈비,18267801
273,8922,새마을,1,한식,서울특별시 마포구 동교로9길 51 (망원동),0, 전통시장(망원시장) 주변,영업시간 : 11:00 ~ 22:00 좌석수 : 100석 휴무일 : 일요일 배달 : 불가 예약 : 가능 카드 : 가능 주차 : 불가 홈페이지 주소 : 전자우편주소 : 기타 :    , 저렴한 가격과 깔끔한 음식 제공,2,21-2,http://tearstop.seoul.go.kr/mulga/photo/20150716174329.png,37.55590302,126.909176,마포구,망원동,마포구 망원동 새마을,13404914
274,8984,세종하늘마루,1,한식,서울특별시 광진구 군자로 153 (군자동),497-5540,군자동 주민센터 입구 근처,영업시간 : 10:00~22:00 좌석수 : 휴무일 : 매주 일요일  배달 : 예약 : 카드 : 주차 : 홈페이지 주소 : 전자우편주소 : 기타 :     ,,2,21-2,http://tearstop.seoul.go.kr/mulga/photo/20151228155057.JPG,37.55498405,127.0760893,광진구,군자동,광진구 군자동 세종하늘마루,1724639089
275,8861,꾸워,1,한식,서울특별시 은평구 은평로 34 (신사동),02-374-3004,신사1동주민센터 부근,영업시간 :15:00~03:00 좌석수 : 68 휴무일 : 없음 배달 : ○ 카드 : ○ 주차 : ×               ,신선한 재료 가족경영,2,21-2,http://tearstop.seoul.go.kr/mulga/photo/20150317153612.JPG,37.59804449,126.9117856,은평구,신사동,은평구 신사동 꾸워,38009154
276,8516,동대문곱창전문,1,한식,서울특별시 강남구 논현로8길 11 (개포동),02-571-1250,개포119안전센터 건너편 우측 70m,영업시간 : 10:30~20:30 좌석수 : 40석 휴무일 : 일요일 배달 : 가까운거리 가능 예약  가능: 카드 : 가능 주차 : 1~2대 가능 홈페이지 주소 : 전자우편주소 :         ,단골손님을 유지하게 위하여 노력하고 있음,2,21-2,http://tearstop.seoul.go.kr/mulga/photo/20170404102416.jpg,37.47400394,127.0498194,강남구,개포동,강남구 개포동 동대문곱창전문,1867169591
277,8908,기덕이네생고기집,1,한식,서울특별시 광진구 뚝섬로58길 26 (자양동),444-8597,,영업시간 : 10:00 ~ 22:00 좌석수 : 휴무일 : 연중무휴 배달 : 예약 : 카드 : 주차 : 가능 홈페이지 주소 : 전자우편주소 : 기타 :       ,,2,21-2,http://tearstop.seoul.go.kr/mulga/photo/20150714111746.jpg,37.5307627,127.0846022,광진구,자양동,광진구 자양동 기덕이네생고기집,-
278,8968,메운불닭,3,경양식일식,서울특별시 송파구 위례성대로18길 28 (방이동),421-2223 ,,null ,,2,21-2,http://tearstop.seoul.go.kr/mulga/photo/20151202135344.jpg,37.51003805,127.1249302,송파구,방이동,송파구 방이동 메운불닭,-
279,8707,미각,1,한식,서울특별시 서초구 반포대로28길 8 (서초동),02-585-9095,2호선 서초역1번출구 우측 첫번째골목.,영업시간 :10:00~22:00 좌석수 :100 휴무일 :구정.추석 배달 :불가 예약 :가능 카드 :가능 주차 :가능 홈페이지 주소 : 전자우편주소 :   ,20년 전통의 국내산 한우 정육직영식당입니다. 우수한 품질의 한우로 육즙이 풍부하고 부드러우면서 쫄깃함니다. ,2,21-2,http://tearstop.seoul.go.kr/mulga/photo/20130613134131.JPG,37.49022712,127.0091263,서초구,서초동,서초구 서초동 미각,11369836
280,8896,짜우리아,2,중식,서울특별시 영등포구 영신로 34 (영등포동),02-833-8802,역세권인 지하철 1호선 영등포역 뒤편에 위치,영업시간 : 11:00~21:30 좌석수 :  80석 휴무일 : 매주월요일 배달 : 불가 예약 : 가능 카드 : 가능 주차 : 불가 홈페이지 주소 : 전자우편주소 : 기타 :    ,10년 이상된 매장으로 부부가 운영하여 인건비 절감 현금결재시 짜장면 3500원,2,21-2,http://tearstop.seoul.go.kr/mulga/photo/20150609105749.JPG,37.51452919,126.9081653,영등포구,영등포동,영등포구 영등포동 짜우리아,13159662
281,8805,얼레리꼴레리,1,한식,서울특별시 중랑구 양원역로 61 (망우동),493-4612,송곡여고 앞,영업시간 : 06:00 ~ 21:00 좌석수 : 22 휴무일 : 매주 일요일 배달 : 불가 예약 : 가능 카드 : 가능 주차 : 불가     , 학교 앞 업소로 모든 메뉴가 저렴 김치&#8228;참치 등 각종 주먹밥을 2000원대로 먹을 수 있고 수제돈가스가 4000원이며     학생들 건강을 생각해서 조미료의 최소화하고 신선한 재료로 음식을 제공하기 때문에 맛이 뛰어남 ,2,21-2,http://tearstop.seoul.go.kr/mulga/photo/20151126154056.jpg,37.60568884,127.1059657,중랑구,망우동,중랑구 망우동 얼레리꼴레리,-
282,8925,효성마루(효성식당),1,한식,서울특별시 마포구 마포대로7길 15 (공덕동),716-3683,,영업시간 : 09:00 ~ 22:00 좌석수 : 30석 휴무일 : 일요일(공휴일) 배달 : 가능 예약 : 가능 카드 : 가능 주차 : 일부가능 홈페이지 주소 : 전자우편주소 : 기타 :    , ,2,21-2,http://tearstop.seoul.go.kr/mulga/photo/20150716175304.png,37.54693235,126.9519771,마포구,공덕동,마포구 공덕동 효성마루(효성식당),-
283,8786,웰빙 콩나물,1,한식,서울특별시 중랑구 망우로62길 33 (망우동),2209-6623,우림시장 내(동 29호),영업시간 : 9시~9시 좌석수 : 28석 휴무일 : 매주 일요일 배달 : 불가 예약 : 가능 카드 : 가능 주차 : 가능(우림시장 주차장) :      ,우림시장내 위치 직접 콩나물을 생산하고 묵을 쒀서 유통마진 절감으로 가격이 저렴하고 맛이 뛰어나며 콩나물 비빔밥과 국밥 외     소고기콩나물 비빔밥 도토리묵사발 등의 메뉴도 제공되어 손님의 입맛을 사로잡음 직접 기른 콩나물도 싸게 판매함 ,2,21-2,http://tearstop.seoul.go.kr/mulga/photo/20151126160718.jpg,37.59772896,127.097923,중랑구,망우동,중랑구 망우동 웰빙 콩나물,31148514
284,8930,착한메밀,1,한식,서울특별시 노원구 상계로 111 (상계동),02-936-2819,,영업시간 : 11:00~21:00 좌석수 :  휴무일 : 첫째 셋째 월요일 배달 : 불가 (포장시 메밀칼국수 4500원) 예약 : 카드 : 주차 : 가능 (주차공간 협소) 홈페이지 주소 : 전자우편주소 : 기타 :    ,&#9702;국내산 메밀 막국수 &#9702;즉석에서 뽑은 쫄깃한 면발,2,21-2,http://tearstop.seoul.go.kr/mulga/photo/20150812113117.jpg,37.65754268,127.0670831,노원구,상계동,노원구 상계동 착한메밀,1154911299
285,8989,밀밭 손 칼국수,1,한식,서울특별시 성북구 보문로 156-3 (삼선동5가),953-8894,성북구청 버스정류장 앞,영업시간 : 10시 ~ 23시 좌석수 : 40석 휴무일 : 없음 배달 : 불가 예약 : 가능 카드 : 가능 주차 : 불가 홈페이지 주소 : 전자우편주소 : 기타 :  ,변함없는 서비스로 항상 친절하게 모시겠습니다. 요일별 현금가 특별할인도 있으니 꼭 확인해주세요.,2,21-2,http://tearstop.seoul.go.kr/mulga/photo/20160104161102.jpg,37.58884112,127.0172183,성북구,삼선동,성북구 삼선동 밀밭 손 칼국수,33937197
286,8995,전주비빔밥,1,한식,서울특별시 강남구 봉은사로 524 (삼성동) 공항타워 지하1층 14호,02-2016-5280,오크우드프리미어 코엑스센너에서 도보 3분,영업시간 :07:00~21:00 좌석수 : 휴무일 : 배달 :불가능 예약 : 카드 : 주차 :가능 홈페이지 주소 : 전자우편주소 : 기타 :     ,,2,21-2,http://tearstop.seoul.go.kr/mulga/photo/20160122145620.jpg,37.51283208,127.0572509,강남구,삼성동,강남구 삼성동 전주비빔밥,38277174
287,8514,바지락칼국수,1,한식,서울특별시 강남구 개포로17길 3-10 (개포동),02-529-5317,개포로 포이사거리에서 개포4동주민센터쪽으로 첫번째골목 백암빌딩끼고 카센타옆,영업시간 :10:000~22:00 좌석수 : 휴무일 :일요일 배달 :불가능 예약 : 카드 : 주차 :불가능 홈페이지 주소 : 전자우편주소 :       ,8년째 가게를 운영 단골손님을 유지하기 위하여 노력함,2,21-2,http://tearstop.seoul.go.kr/mulga/photo/20170404102448.jpg,37.47889649,127.0456391,강남구,개포동,강남구 개포동 바지락칼국수,20877928
288,8709,탐라도야지,1,한식,서울특별시 서초구 서초대로50길 82 (서초동),02-521-3337,2호선 교대역 14번출구 직진후우리은행 뒷쪽.,영업시간 :24시간 좌석수 :280 휴무일 :연중무휴 배달 :불가 예약 :가능 카드 :가능 주차 :가능 홈페이지 주소 : 전자우편주소 : ,쫄깃한 제주오겹살 두툼하고 쫄깃한 삼겹살 고기와함께 버섯껍데기떡두부 제공됩니다.,2,21-2,http://tearstop.seoul.go.kr/mulga/photo/20130613134034.JPG,37.48959508,127.0135612,서초구,서초동,서초구 서초동 탐라도야지,18364648
289,9004,한우정육점식당,1,한식,서울특별시 강남구 일원로5길 24 (일원동),02-445-6633,영희초등학교옆 대청공원 건너편 골목 김가네 옆,영업시간 :11:00~22:30 좌석수 : 휴무일 : 배달 :불가능 예약 : 카드 : 주차 :가능 홈페이지 주소 : 전자우편주소 : 기타 :    ,,2,21-2,http://tearstop.seoul.go.kr/mulga/photo/20160122163735.jpg,37.49132514,127.0826982,강남구,일원동,강남구 일원동 한우정육점식당,-
290,8866,김밥분식,1,한식,서울특별시 관악구 관악로24길 47-1 (봉천동),889-5230,서울대입구역 7번 출구 600m 도보 10분거리,영업시간 : 오전8시 ~ 오후 9시 좌석수 : 5석 배달 : 불가 예약 : 가능 카드 : 불가 주차 : 불가 * 단체주문 가능 ,메뉴 단일화로 경쟁 본인건물로 임대료 절감하여 10년이상 가격동결 집에 엄마가 싼 김밥맛,2,21-2,http://tearstop.seoul.go.kr/mulga/photo/20150107150015.jpg,37.48502064,126.9567356,관악구,봉천동,관악구 봉천동 김밥분식,37778826
291,8966,꾸어구어,1,한식,서울특별시 송파구 마천로 293 (마천동),449-9295,,,,2,21-2,http://tearstop.seoul.go.kr/mulga/photo/20151202134820.jpg,37.49649832,127.1489179,송파구,마천동,송파구 마천동 꾸어구어,-
292,9009,이모네분식,4,기타외식업(다방패스트푸드등),서울특별시 강남구 도곡로21길 15 (역삼동 역삼동월드메르디앙아파트) 지상1층5호,02-567-2005,도곡1동주민센터 사거리에서 뱅뱅사거리쪽으로 100m정도가서 스타벅스끼고 우회전 월드메르디앙아파트상가 1층,영업시간 :07:00~20:00 좌석수 : 휴무일 :일요일 배달 :불가능 예약 : 카드 :가능 주차 :가능 홈페이지 주소 : 전자우편주소 : 기타 :        ,,2,21-2,http://tearstop.seoul.go.kr/mulga/photo/20160122165303.jpg,37.49272349,127.0387187,강남구,역삼동,강남구 역삼동 이모네분식,1076113973
293,8975,전주콩나물국밥,1,한식,서울특별시 금천구 시흥대로62길 7 (시흥동),893-1264,,영업시간 : 좌석수 : 휴무일 : 배달 : 예약 : 카드 : 주차 : 홈페이지 주소 : 전자우편주소 : 기타 : ,,2,21-2,http://tearstop.seoul.go.kr/mulga/photo/20151211101807.jpg,37.45524648,126.900939,금천구,시흥동,금천구 시흥동 전주콩나물국밥,37943736
